     2.11           OBSERVATION DATA    M (MIXED)           RINEX VERSION / TYPE
teqc  2018Jan11     Thomas Touz         20180404 19:51:17UTCPGM / RUN BY / DATE
AUBE                                                        MARKER NAME
AUBE                                                        MARKER NUMBER
EC+G                HEIG                                    OBSERVER / AGENCY
GS25JAUNE           LEICA GS25          7.00.125/7.300      REC # / TYPE / VERS
AR10JAUNE           LEIAR10         NONE                    ANT # / TYPE
  4345466.3891   492267.9430  4628777.6650                  APPROX POSITION XYZ
       -0.0507        0.0000        0.0000                  ANTENNA: DELTA H/E/N
     1     1                                                WAVELENGTH FACT L1/2
    15    C1    L1    D1    P2    L2    D2    C5    L5    D5# / TYPES OF OBSERV
          C7    L7    D7    C8    L8    D8                  # / TYPES OF OBSERV
Linux 2.6.32-573.12.1.x86_64|x86_64|gcc|Linux 64|=+         COMMENT
GS25 V7.00          HEIG                2018 04 04 07:14    COMMENT
                                                            COMMENT
    30.0000                                                 INTERVAL
    18                                                      LEAP SECONDS
BIT 2 OF LLI FLAGS DATA COLLECTED UNDER A/S CONDITION       COMMENT
SNR is mapped to RINEX snr flag value [1-9]                 COMMENT
LX:    >= 25dBHz -> 1; 26-27dBHz -> 2; 28-31dBHz -> 3       COMMENT
       32-35dBHz -> 4; 36-38dBHz -> 5; 39-41dBHz -> 6       COMMENT
       42-44dBHz -> 7; 45-48dBHz -> 8; >= 49dBHz -> 9       COMMENT
teqc windowed:  end  @ 2018 Apr  4 10:01:00.000             COMMENT
  2018     4     4     7    15    0.0000000     GPS         TIME OF FIRST OBS
                                                            END OF HEADER
 18  4  4  7 15  0.0000000  0 15G02G05G07G09G13G28G30R01R02R11R12R13
                                R19E07E30
  23845498.806   125308927.02217     -2762.761    23845495.596    97643314.90655
     -2152.801

  20616781.885   108341922.54819       592.403    20616780.450    84422269.00058
       461.613

  21311331.090   111991801.68519     -1826.285    21311329.580    87266332.84757
     -1423.079

  23270008.516   122284717.61318     -2920.588    23270010.455    95286794.71557
     -2275.786    23270010.582    91316516.66219     -2180.874

  22534155.770   118417787.81919      2694.468    22534154.353    92273592.87657
      2099.585

  22864100.898   120151661.29518      2859.914    22864099.866    93624663.90856
      2228.504

  20288505.510   106616815.30719      -247.305    20288506.190    83078040.36859
      -192.705    20288506.388    79616456.04819      -184.745

  21273713.547   113720200.07818     -3023.056    21273716.396    88449048.75417
     -2351.266

  19242161.198   102679857.91619       949.913    19242162.054    79862112.47718
       738.820

  20544843.153   109785409.87419     -2648.494    20544843.600    85388654.39018
     -2059.940

  19306664.951   103132734.72119      1150.740


  22898652.688   122277530.12315      4369.334    22898654.840    95104759.20414
      3398.372

  23530188.183   125870676.84814       216.738    23530187.349    97899407.68215
       168.574

  24644119.167   129505713.53819     -1779.581
                  24644122.875    96708826.34819     -1328.988    24644120.632
  99231659.21019     -1363.678    24644121.853    97970243.38019     -1346.315
  22945921.358   120581629.65819     -1297.645
                  22945923.613    90044732.90219      -969.085    22945921.182
  92393715.72119      -994.362    22945922.604    91219224.91419      -981.710
 18  4  4  7 15 30.0000000  0 15G02G05G07G09G13G28G30R01R02R11R12R13
                                R19E07E30
  23861289.903   125391909.940 7     -2769.128    23861286.787    97707976.82745
     -2157.765

  20613453.726   108324432.908 9       573.783    20613452.307    84408640.69548
       447.104

  21321791.319   112046770.533 9     -1837.971    21321789.783    87309165.70747
     -1432.185

  23286694.950   122372405.223 8     -2924.990    23286696.844    95355122.69747
     -2279.213    23286697.042    91381997.629 9     -2184.335

  22518790.399   118337042.259 8      2688.832    22518788.983    92210674.25847
      2095.194

  22847800.839   120066003.975 8      2850.767    22847799.824    93557917.93946
      2221.378

  20289965.575   106624488.104 9      -263.980    20289966.274    83084019.16149
      -205.699    20289966.483    79622185.726 9      -197.161

  21290716.304   113811088.965 7     -3036.006    21290719.168    88519740.015 7
     -2361.340

  19236871.359   102651630.288 9       932.185    19236872.210    79840157.666 8
       725.033

  20559765.981   109865152.878 9     -2667.387    20559766.375    85450676.736 8
     -2074.634

  19300275.798   103098605.022 9      1124.802


  22874126.156   122146560.160 5      4362.461    22874128.235    95002893.720 5
      3393.028

  23529041.346   125864544.16313       191.337    23529044.741    97894643.24215
       148.810

  24654299.515   129559211.669 9     -1786.699
                  24654303.287    96748776.219 9     -1334.256    24654301.054
  99272651.259 9     -1369.047    24654302.228    98010714.343 9     -1351.654
  22953366.873   120620756.244 9     -1310.486
                  22953369.158    90073950.805 9      -978.688    22953366.803
  92423695.821 9     -1004.201    22953368.141    91248823.915 9      -991.435
 18  4  4  7 16  0.0000000  0 15G02G05G07G09G13G28G30R01R02R11R12R13
                                R19E07E30
  23877114.395   125475067.929 8     -2774.972    23877111.197    97772775.14545
     -2162.319

  20610230.552   108307495.015 9       555.326    20610229.146    84395442.33848
       432.722

  21332316.838   112102082.395 9     -1849.552    21332315.275    87352265.84247
     -1441.210

  23303406.171   122460222.797 8     -2929.705    23303408.023    95423551.87447
     -2282.893    23303408.327    91447575.624 9     -2187.714

  22503455.830   118256458.638 9      2683.400    22503454.422    92147881.84447
      2090.962

  22831552.131   119980616.538 8      2841.637    22831551.135    93491382.29546
      2214.265

  20291519.294   106632652.985 9      -280.481    20291519.994    83090381.40649
      -218.557    20291520.205    79628282.875 9      -209.483

  21307789.341   113902353.894 8     -3048.467    21307792.212    88590723.823 5
     -2371.029

  19231679.649   102623926.270 9       914.628    19231680.481    79818610.088 8
       711.377

  20574793.371   109945454.545 9     -2686.134    20574793.740    85513133.569 8
     -2089.216

  19294031.104   103065246.868 9      1098.971


  22849638.353   122015797.209 5      4354.894    22849640.602    94901189.244 5
      3387.140

  23528044.461   125859166.02613       165.275    23528042.670    97890467.71014
       128.538

  24664518.509   129612912.768 9     -1793.516
                  24664522.310    96788877.656 9     -1339.356    24664520.097
  99313798.821 9     -1374.284    24664521.232    98051338.844 9     -1356.816
  22960884.398   120660261.174 9     -1323.275
                  22960886.721    90103451.223 9      -988.173    22960884.427
  92453965.812 9     -1013.944    22960885.683    91278709.123 9     -1001.083
 18  4  4  7 16 30.0000000  0 15G02G05G07G09G13G28G30R01R02R11R12R13
                                R19E07E30
  23892971.886   125558399.109 8     -2781.032    23892968.499    97837708.44246
     -2167.042

  20607112.708   108291110.562 9       536.450    20607111.328    84382675.20848
       418.012

  21342907.515   112157736.629 9     -1861.258    21342905.918    87395632.76548
     -1450.331

  23320142.090   122548170.491 8     -2934.124    23320143.895    95492082.53547
     -2286.329    23320144.245    91513250.855 9     -2191.091

  22488152.452   118176038.919 9      2677.487    22488151.054    92085217.14547
      2086.355

  22815355.654   119895503.519 8      2832.055    22815354.678    93425060.48046
      2206.796

  20293166.679   106641310.035 9      -297.262    20293167.385    83097127.14949
      -231.633    20293167.592    79634747.541 9      -221.966

  21324932.736   113993994.900 8     -3061.300    21324935.520    88662000.152 6
     -2381.013

  19226586.598   102596748.817 9       896.677    19226587.417    79797472.071 8
       697.416

  20589924.753   110026312.011 9     -2704.899    20589925.126    85576022.703 8
     -2103.810

  19287931.117   103032661.597 9      1072.892


  22825190.268   121885246.587 5      4347.949    22825192.758    94799649.885 5
      3381.738

  23527188.396   125854585.064 3       139.597    23527184.820    97886904.805 3
       108.573

  24674776.289   129666817.620 9     -1800.623
                  24674780.085    96829131.244 9     -1344.624    24674777.903
  99355102.505 9     -1379.746    24674779.009    98092117.482 9     -1362.210
  22968473.829   120700144.030 9     -1336.194
                  22968476.176    90133233.868 9      -997.756    22968473.944
  92484525.402 9     -1023.814    22968475.136    91308880.240 9     -1010.804
 18  4  4  7 17  0.0000000  0 14G02G05G07G09G13G28G30R01R02R11R12R13
                                E07E30
  23908862.134   125641902.395 8     -2786.273    23908858.595    97902775.87647
     -2171.125

  20604100.739   108275282.581 9       518.360    20604099.374    84370341.72148
       403.917

  21353563.320   112213733.136 9     -1872.197    21353561.684    87439266.40948
     -1458.856

  23336903.060   122636249.567 8     -2938.196    23336904.840    95560715.51747
     -2289.507    23336905.191    91579024.071 9     -2194.007

  22472880.759   118095785.650 9      2672.396    22472879.376    92022682.12547
      2082.385

  22799212.185   119810669.034 8      2823.245    22799211.226    93358955.70347
      2199.935

  20294907.871   106650460.091 9      -313.188    20294908.591    83104257.06349
      -244.043    20294908.783    79641580.367 9      -233.813

  21342146.565   114086012.174 7     -3073.433    21342149.267    88733569.093 7
     -2390.449

  19221592.945   102570101.663 9       879.446    19221593.764    79776746.489 8
       684.014

  20605159.845   110107723.637 9     -2722.882    20605160.236    85639342.833 8
     -2117.798

  19281976.301   103000851.872 9      1047.475


  22800782.867   121754912.921 6      4340.878    22800785.493    94698279.281 5
      3376.240

  24685073.148   129720927.837 9     -1807.040
                  24685076.918    96869538.199 9     -1349.344    24685074.785
  99396563.564 9     -1384.585    24685075.853    98133051.482 9     -1366.943
  22976135.265   120740405.318 9     -1348.290
                  22976137.628    90163299.112 9     -1006.837    22976135.445
  92515374.952 9     -1033.074    22976136.601    91339337.637 9     -1019.968
 18  4  4  7 17 30.0000000  0 14G02G05G07G09G13G28G30R01R02R11R12R13
                                E07E30
  23924785.153   125725577.924 7     -2792.141    23924781.528    97967977.54447
     -2175.696

  20601195.429   108260014.993 9       499.406    20601194.072    84358444.88248
       389.147

  21364284.581   112270073.519 9     -1883.931    21364282.924    87483167.98148
     -1467.999

  23353689.417   122724462.217 8     -2942.749    23353691.227    95629452.57247
     -2293.052    23353691.572    91644897.089 9     -2197.527

  22457641.476   118015702.745 9      2666.438    22457640.099    91960279.86947
      2077.746

  22783122.804   119726118.861 7      2813.454    22783121.877    93293072.46947
      2192.303

  20296743.286   106660105.216 9      -329.894    20296744.007    83111772.74249
      -257.061    20296744.198    79648782.903 9      -246.377

  21359431.049   114178407.431 8     -3086.295    21359433.766    88805432.034 7
     -2400.452

  19216699.606   102543989.796 9       861.357    19216700.402    79756437.251 8
       669.944

  20620498.518   110189688.723 9     -2741.448    20620498.933    85703093.429 9
     -2132.239

  19276167.089   102969820.938 9      1021.213


  22776417.197   121624801.600 5      4333.221    22776419.879    94597081.571 5
      3370.283

  24695409.640   129775246.316 9     -1814.234
                  24695413.383    96910100.668 9     -1354.792    24695411.306
  99438184.180 9     -1390.101    24695412.336    98174143.029 9     -1372.437
  22983869.034   120781046.682 9     -1361.175
                  22983871.416    90193648.171 9     -1016.507    22983869.276
  92546515.732 9     -1043.032    22983870.401    91370082.555 9     -1029.775
 18  4  4  7 18  0.0000000  0 14G02G05G07G09G13G28G30R01R02R11R12R13
                                E07E30
  23940739.156   125809416.583 6     -2797.559    23940735.522    98033306.37246
     -2179.914

  20598395.820   108245302.951 9       480.976    20598394.471    84346980.95248
       374.786

  21375069.784   112326749.978 9     -1894.973    21375068.109    87527331.44948
     -1476.602

  23370499.896   122812802.037 8     -2947.080    23370501.763    95698288.78547
     -2296.428    23370502.048    91710865.086 9     -2200.682

  22442433.649   117935785.119 9      2661.020    22442432.260    91898006.40647
      2073.523

  22767086.945   119641850.090 8      2804.019    22767086.037    93227408.53746
      2184.950

  20298671.627   106670238.688 9      -346.152    20298672.354    83119668.95549
      -269.729    20298672.543    79656350.103 9      -258.493

  21376784.835   114271173.539 8     -3098.743    21376787.602    88877583.470 6
     -2410.133

  19211905.903   102518409.575 9       843.588    19211906.665    79736541.513 8
       656.124

  20635938.952   110272197.657 9     -2759.387    20635939.378    85767267.029 8
     -2146.190

  19270502.867   102939563.671 9       995.494


  22752092.720   121494910.370 6      4325.791    22752095.381    94496055.104 5
      3364.507

  24705784.631   129829767.080 9     -1820.941
                  24705788.349    96950814.185 9     -1359.800    24705786.326
  99479959.814 9     -1395.319    24705787.332    98215387.605 9     -1377.562
  22991673.766   120822060.999 9     -1373.587
                  22991676.183    90224275.738 9     -1025.754    22991674.064
  92577942.276 9     -1052.527    22991675.165    91401109.613 9     -1039.164
 18  4  4  7 18 30.0000000  0 14G02G05G07G09G13G28G30R01R02R11R12R13
                                E07E30
  23956724.652   125893421.336 5     -2803.138    23956721.138    98098764.64645
     -2184.261

  20595703.208   108231153.142 9       462.118    20595701.867    84335955.11548
       360.092

  21385919.760   112383766.836 9     -1906.433    21385918.076    87571760.15748
     -1485.532

  23387335.632   122901274.352 8     -2951.537    23387337.557    95767228.18047
     -2299.901    23387337.789    91776932.019 9     -2204.046

  22427258.564   117856039.520 9      2655.172    22427257.149    91835866.98747
      2068.965

  22751106.279   119557871.207 8      2794.102    22751105.334    93161970.48647
      2177.223

  20300693.856   106680865.540 9      -362.675    20300694.596    83127949.61649
      -282.604    20300694.781    79664285.737 9      -270.818

  21394208.914   114364315.103 8     -3111.093    21394211.684    88950026.856 6
     -2419.742

  19207213.313   102493368.921 9       825.436    19207214.044    79717065.439 8
       642.006

  20651481.611   110355252.870 9     -2777.827    20651482.021    85831865.520 8
     -2160.532

  19264984.673   102910086.493 9       969.314


  22727811.224   121365248.639 6      4317.850    22727813.822    94395207.154 5
      3358.330

  24716199.218   129884495.988 9     -1828.010
                  24716202.909    96991683.154 9     -1365.029    24716200.916
  99521894.921 9     -1400.648    24716201.920    98256789.642 9     -1382.831
  22999550.360   120863452.897 9     -1386.224
                  22999552.822    90255185.255 9     -1035.140    22999550.705
  92609658.132 9     -1062.154    22999551.791    91432422.295 9     -1048.612
 18  4  4  7 19  0.0000000  0 15G02G05G07G09G13G28G30R01R02R11R12R13
                                R19E07E30
  23972739.591   125977581.179 7     -2808.108    23972736.280    98164343.76647
     -2188.139

  20593116.259   108217558.615 9       443.644    20593114.918    84325361.96748
       345.696

  21396832.613   112441114.150 9     -1917.360    21396830.922    87616446.37147
     -1494.046

  23404194.891   122989870.274 8     -2955.541    23404196.825    95836263.92947
     -2303.021    23404196.995    91843091.266 9     -2207.088

  22412114.823   117776458.629 9      2649.784    22412113.384    91773855.91147
      2064.767

  22735179.769   119474176.870 8      2784.775    22735178.783    93096754.14847
      2169.957

  20302808.221   106691976.578 9      -378.647    20302808.961    83136607.57349
      -295.050    20302809.147    79672582.945 9      -282.812

  21411701.461   114457822.398 8     -3123.343    21411704.179    89022754.660 7
     -2429.268

  19202620.649   102468861.555 9       807.685    19202621.358    79698004.152 8
       628.199

  20667124.225   110438842.214 9     -2795.444    20667124.606    85896879.451 8
     -2174.235

  19259610.887   102881381.213 9       943.728


  22703571.681   121235810.781 5      4310.604    22703574.220    94294533.283 5
      3352.694

  23525066.565   125843263.62113        11.957    23525061.227    97878068.46213
         9.300

  24726651.799   129939424.637 9     -1834.531
                  24726655.494    97032701.278 9     -1369.984    24726653.496
  99563983.068 9     -1405.731    24726654.510    98298342.779 9     -1387.844
  23007496.994   120905212.842 9     -1398.345
                  23007499.484    90286369.620 9     -1044.318    23007497.369
  92641656.007 9     -1071.528    23007498.450    91464013.417 9     -1057.945
 18  4  4  7 19 30.0000000  0 15G02G05G07G09G13G28G30R01R02R11R12R13
                                R19E07E30
  23988784.027   126061895.543 7     -2813.216    23988780.876    98230043.21646
     -2192.119

  20590635.485   108204522.015 9       424.936    20590634.147    84315203.56448
       331.118

  21407808.348   112498791.901 9     -1928.414    21407806.651    87661390.06347
     -1502.661

  23421077.997   123078591.148 8     -2959.549    23421079.914    95905397.00546
     -2306.147    23421080.049    91909343.801 9     -2210.189

  22397002.933   117697045.123 9      2644.031    22397001.489    91711975.26347
      2060.284

  22719308.314   119390771.902 8      2775.063    22719307.351    93031763.26446
      2162.386

  20305014.929   106703572.850 9      -394.934    20305015.667    83145643.63049
      -307.741    20305015.860    79681242.496 9      -294.978

  21429262.525   114551696.201 7     -3135.554    21429265.213    89095767.599 7
     -2438.764

  19198128.698   102444891.663 9       789.724    19198129.400    79679360.896 8
       614.230

  20682866.523   110522964.176 9     -2813.178    20682866.880    85962307.620 8
     -2188.029

  19254382.228   102853450.496 9       917.854


  22679375.071   121106602.136 6      4302.847    22679377.505    94194037.702 5
      3346.660

  23525072.093   125843297.216 3       -14.427    23525068.348    97878094.588 4
       -11.220

  24737142.750   129994554.939 9     -1841.306
                  24737146.474    97073869.982 9     -1375.048    24737144.436
  99606225.741 9     -1410.931    24737145.473    98340048.465 9     -1392.982
  23015513.796   120947341.472 9     -1410.680
                  23015516.307    90317829.299 9     -1053.476    23015514.193
  92673936.383 9     -1081.017    23015515.274    91495883.445 9     -1067.248
 18  4  4  7 20  0.0000000  0 15G02G05G07G09G13G28G30R01R02R11R12R13
                                R19E07E30
  24004858.170   126146365.594 8     -2818.322    24004855.094    98295863.94846
     -2196.099

  20588261.868   108192048.521 9       406.293    20588260.535    84305483.94548
       316.592

  21418847.457   112556802.702 9     -1939.332    21418845.751    87706593.27448
     -1511.168

  23437985.616   123167440.821 8     -2964.049    23437987.483    95974630.46547
     -2309.649    23437987.629    91975692.499 9     -2213.269

  22381923.914   117617804.390 9      2638.386    22381922.475    91650229.25147
      2055.886

  22703493.273   119307663.494 8      2765.209    22703492.373    92967003.46946
      2154.708

  20307314.638   106715657.828 9      -411.101    20307315.376    83155060.49249
      -320.338    20307315.575    79690266.981 9      -306.966

  21446892.695   114645939.639 7     -3147.544    21446895.431    89169068.055 6
     -2448.091

  19193738.681   102421465.679 9       771.671    19193739.375    79661140.671 8
       600.189

  20698708.631   110607619.562 9     -2830.792    20698708.976    86028150.687 8
     -2201.728

  19249299.447   102826298.943 9       891.989


  22655222.880   120977630.661 6      4294.776    22655225.156    94093726.600 5
      3340.383

  23525221.755   125844101.583 3       -40.729    23525220.035    97878720.203 3
       -31.683

  24747672.900   130049891.142 9     -1847.976
                  24747676.632    97115192.443 9     -1380.043    24747674.563
  99648626.187 9     -1416.026    24747675.618    98381909.919 9     -1398.027
  23023601.344   120989841.858 9     -1422.962
                  23023603.882    90349566.591 9     -1062.594    23023601.744
  92706501.601 9     -1090.304    23023602.837    91528034.699 9     -1076.451
 18  4  4  7 20 30.0000000  0 14G02G05G07G09G13G28G30R01R02R11R12R13
                                E07E30
  24020960.150   126230981.575 7     -2823.074    24020957.074    98361798.36446
     -2199.801

  20585994.350   108180132.635 9       387.702    20585993.017    84296198.83948
       302.106

  21429948.398   112615138.395 9     -1950.102    21429946.678    87752049.63748
     -1519.561

  23454916.314   123256411.784 8     -2967.812    23454918.114    96043958.44846
     -2312.581    23454918.324    92042131.799 9     -2216.325

  22366876.687   117538730.676 8      2632.751    22366875.257    91588613.37547
      2051.494

  22687733.959   119224847.903 8      2755.402    22687733.100    92902471.85046
      2147.068

  20309705.872   106728223.768 9      -427.055    20309706.613    83164852.12649
      -332.770    20309706.813    79699650.632 9      -318.893

  21464590.447   114740544.262 8     -3159.759    21464593.278    89242649.375 6
     -2457.594

  19189449.671   102398578.675 9       753.708    19189450.353    79643339.656 8
       586.218

  20714648.589   110692797.779 9     -2848.243    20714648.931    86094400.381 8
     -2215.302

  19244361.153   102799920.081 9       866.224


  22631114.261   120848891.838 6      4286.749    22631116.395    93993596.442 5
      3334.139

  24758240.936   130105426.344 9     -1854.606
                  24758244.660    97156663.491 9     -1384.943    24758242.594
  99691179.100 9     -1421.085    24758243.650    98423921.898 9     -1402.992
  23031758.109   121032705.939 9     -1435.127
                  23031760.675    90381575.465 9     -1071.656    23031758.511
  92739345.495 9     -1099.520    23031759.620    91560461.086 9     -1085.589
 18  4  4  7 21  0.0000000  0 14G02G05G07G09G13G28G30R01R02R11R12R13
                                E07E30
  24037091.119   126315749.937 7     -2828.044    24037088.000    98427851.56047
     -2203.672

  20583834.828   108168784.234 9       368.911    20583833.511    84287355.91648
       287.463

  21441112.550   112673806.321 9     -1961.017    21441110.812    87797764.89147
     -1528.067

  23471871.690   123345512.680 8     -2972.124    23471873.418    96113387.71047
     -2315.941    23471873.705    92108668.140 9     -2219.457

  22351863.070   117459833.610 9      2626.968    22351861.647    91527135.15147
      2046.989

  22672032.592   119142336.724 8      2745.367    22672031.711    92838177.45547
      2139.249

  20312190.186   106741278.868 9      -443.282    20312190.916    83175024.92949
      -345.415    20312191.119    79709399.566 9      -331.033

  21482357.365   114835518.307 8     -3171.826    21482360.239    89316517.989 7
     -2466.980

  19185263.795   102376241.943 9       735.349    19185264.464    79625966.627 8
       571.937

  20730687.417   110778504.374 9     -2865.658    20730687.752    86161061.047 8
     -2228.845

  19239569.460   102774323.917 9       840.257


  22607051.641   120720398.636 6      4278.991    22607053.644    93893657.335 5
      3328.106

  24768848.562   130161169.670 9     -1861.517
                  24768852.284    97198289.971 9     -1390.079    24768850.235
  99733891.485 9     -1426.304    24768851.275    98466091.333 9     -1408.183
  23039985.575   121075941.538 9     -1447.288
                  23039988.146    90413861.782 9     -1080.743    23039985.968
  92772474.072 9     -1108.974    23039987.094    91593168.531 9     -1094.856
 18  4  4  7 21 30.0000000  0 14G02G05G07G09G13G28G30R01R02R11R12R13
                                E07E30
  24053249.775   126400664.064 7     -2832.872    24053246.637    98494018.38547
     -2207.434

  20581782.682   108158000.127 9       349.996    20581781.388    84278952.71048
       272.724

  21452338.879   112732800.992 9     -1971.946    21452337.129    87843734.75047
     -1536.582

  23488850.986   123434739.183 8     -2976.422    23488852.667    96182914.79847
     -2319.292    23488853.040    92175298.258 9     -2222.565

  22336882.633   117381110.890 8      2621.123    22336881.217    91465792.77847
      2042.433

  22656388.978   119060128.982 8      2734.928    22656388.023    92774119.52046
      2131.114

  20314766.683   106754818.407 9      -459.515    20314767.400    83185575.21849
      -358.063    20314767.599    79719510.255 9      -343.129

  21500192.335   114930856.295 7     -3184.189    21500195.227    89390669.733 7
     -2476.592

  19181180.682   102354453.615 9       717.016    19181181.337    79609020.144 8
       557.679

  20746823.771   110864732.152 9     -2882.945    20746824.098    86228127.091 8
     -2242.290

  19234923.528   102749506.592 9       814.141


  22583034.905   120592150.416 5      4270.647    22583036.804    93793908.764 5
      3321.617

  24779495.024   130217117.165 9     -1868.405
                  24779498.770    97240068.930 9     -1395.260    24779496.708
  99776760.330 9     -1431.634    24779497.736    98508415.230 9     -1413.381
  23048282.776   121119543.560 9     -1459.657
                  23048285.348    90446421.720 9     -1089.958    23048283.161
  92805883.403 9     -1118.390    23048284.302    91626153.164 9     -1104.191
 18  4  4  7 22  0.0000000  0 15G02G05G07G09G13G28G30R01R02R11R12R13
                                R19E07E30
  24069435.815   126485722.377 7     -2838.362    24069432.721    98560297.59047
     -2211.711

  20579838.381   108147782.751 9       330.392    20579837.101    84270991.11448
       257.448

  21463627.216   112792121.536 9     -1983.514    21463625.449    87889958.54547
     -1545.596

  23505854.236   123524091.664 8     -2981.165    23505855.912    96252540.04847
     -2322.987    23505856.347    92242022.488 9     -2226.297

  22321935.729   117302564.360 9      2614.520    22321934.317    91404587.68547
      2037.289

  22640803.885   118978228.914 8      2724.063    22640802.840    92710301.34447
      2122.648

  20317435.383   106768842.473 9      -476.199    20317436.097    83196503.05449
      -371.065    20317436.294    79729982.768 9      -355.631

  21518095.333   115026558.221 8     -3196.888    21518098.286    89465104.572 6
     -2486.469

  19177200.912   102333216.777 9       697.926    19177201.537    79592502.610 8
       542.832

  20763057.129   110951478.245 9     -2900.870    20763057.447    86295596.260 8
     -2256.233

  19230423.665   102725469.445 9       787.548


  22559064.780   120464151.127 5      4261.944    22559066.627    93694353.775 5
      3314.846

  23527259.336   125854985.40712      -142.603


  24790180.532   130273269.823 9     -1875.831
                  24790184.330    97282001.081 9     -1400.797    24790182.208
  99819786.360 9     -1437.338    24790183.251    98550894.325 9     -1419.060
  23056649.650   121163511.734 9     -1472.412
                  23056652.221    90479255.092 9     -1099.493    23056650.025
  92839573.295 9     -1128.189    23056651.179    91659414.798 9     -1113.863
 18  4  4  7 22 30.0000000  0 15G02G05G07G09G13G28G30R01R02R11R12R13
                                R19E07E30
  24085648.008   126570918.131 7     -2842.160    24085645.010    98626683.87047
     -2214.671

  20578001.343   108138129.006 9       312.389    20578000.079    84263468.70248
       243.420

  21474976.641   112851763.060 9     -1993.356    21474974.866    87936432.43748
     -1553.265

  23522880.675   123613566.185 8     -2984.548    23522882.371    96322260.41747
     -2325.621    23522882.815    92308837.823 9     -2228.673

  22307021.831   117224191.343 9      2609.407    22307020.414    91343517.81247
      2033.304

  22625277.142   118896635.523 8      2714.638    22625276.058    92646722.10047
      2115.303

  20320195.450   106783346.704 9      -491.481    20320196.165    83207805.04449
      -382.973    20320196.363    79740813.839 9      -367.027

  21536065.542   115122619.050 7     -3208.020    21536068.525    89539818.474 6
     -2495.131

  19173324.262   102312530.166 9       680.365    19173324.858    79576413.020 8
       529.173

  20779386.180   111038735.671 9     -2917.143    20779386.485    86363463.132 8
     -2268.890

  19226069.276   102702208.807 9       762.381


  22535141.243   120336400.846 6      4254.370    22535143.048    93594992.489 5
      3308.955

  23528126.844   125859628.401 3      -167.884    23528127.072    97890804.31712
      -130.573

  24800904.419   130329624.152 9     -1881.832
                  24800908.257    97324083.833 9     -1405.297    24800906.087
  99862966.926 9     -1441.946    24800907.136    98593525.981 9     -1423.616
  23065085.311   121207841.376 9     -1483.728
                  23065087.875    90512358.389 9     -1107.965    23065085.671
  92873540.153 9     -1136.851    23065086.838    91692949.874 9     -1122.399
 18  4  4  7 23  0.0000000  0 14G02G05G07G09G13G28G30R01R02R11R12R13
                                E07E30
  24101885.504   126656246.765 8     -2846.602    24101882.598    98693173.67947
     -2218.134

  20576271.415   108129038.129 9       293.487    20576270.160    84256384.89348
       228.691

  21486386.491   112911722.184 9     -2004.120    21486384.716    87983153.82648
     -1561.652

  23539929.900   123703160.325 8     -2988.630    23539931.631    96392073.98046
     -2328.804    23539932.041    92375742.465 9     -2231.690

  22292140.761   117145990.846 8      2603.692    22292139.342    91282582.37247
      2028.852

  22609808.949   118815350.013 8      2704.293    22609807.884    92583382.78647
      2107.242

  20323046.340   106798328.238 9      -507.419    20323047.053    83219478.96449
      -395.392    20323047.259    79752001.344 9      -378.895

  21554102.277   115219035.549 7     -3219.831    21554105.240    89614809.029 7
     -2504.314

  19169550.679   102292393.503 9       661.933    19169551.261    79560751.156 8
       514.837

  20795809.855   111126498.667 9     -2933.920    20795810.144    86431723.213 8
     -2281.939

  19221860.002   102679723.425 9       736.490


  22511264.604   120208900.868 6      4245.790    22511266.366    93495825.851 5
      3302.282

  24811666.326   130386178.193 9     -1888.507
                  24811670.182    97366315.697 9     -1410.316    24811668.017
  99906300.517 9     -1447.073    24811669.053    98636308.711 9     -1428.691
  23073589.146   121252529.270 9     -1495.647
                  23073591.689    90545729.212 9     -1116.908    23073589.495
  92907781.517 9     -1145.975    23073590.672    91726755.969 9     -1131.443
 18  4  4  7 23 30.0000000  0 14G02G05G07G09G13G28G30R01R02R11R12R13
                                E07E30
  24118147.942   126741706.358 8     -2850.656    24118145.090    98759765.52347
     -2221.293

  20574648.990   108120512.173 9       274.724    20574647.729    84249741.28348
       214.070

  21497856.587   112971997.875 9     -2014.493    21497854.821    88030121.88047
     -1569.735

  23557001.990   123792874.521 8     -2992.396    23557003.728    96461981.10447
     -2331.739    23557004.078    92442736.779 8     -2234.616

  22277292.945   117067965.096 9      2597.908    22277291.531    91221783.09247
      2024.344

  22594400.059   118734376.034 8      2693.908    22594399.044    92520286.21747
      2099.150

  20325988.067   106813787.105 9      -523.223    20325988.793    83231524.82449
      -407.707    20325989.000    79763545.301 9      -390.726

  21572205.376   115315807.202 7     -3231.742    21572208.357    89690075.895 7
     -2513.574

  19165880.807   102272810.294 9       643.548    19165881.384    79545519.763 8
       500.538

  20812327.660   111214764.729 9     -2950.599    20812327.942    86500374.582 8
     -2294.910

  19217796.039   102658014.596 9       710.649


  22487435.540   120081655.001 5      4237.531    22487437.259    93396856.885 6
      3295.859

  24822466.401   130442932.835 9     -1895.124
                  24822470.250    97408697.369 9     -1415.190    24822468.121
  99949787.820 9     -1452.137    24822469.145    98679243.198 9     -1433.655
  23082161.092   121297575.119 9     -1507.532
                  23082163.608    90579367.340 9     -1125.709    23082161.449
  92942297.166 9     -1155.133    23082162.621    91760832.858 9     -1140.444
 18  4  4  7 24  0.0000000  0 14G02G05G07G09G13G28G30R01R02R11R12R13
                                E07E30
  24134435.971   126827300.303 7     -2854.840    24134433.111    98826462.04746
     -2224.552

  20573135.319   108112557.664 9       255.879    20573134.063    84243542.94648
       199.386

  21509387.840   113032594.973 9     -2024.942    21509386.085    88077340.38847
     -1577.877

  23574098.029   123882714.348 8     -2996.530    23574099.759    96531986.09747
     -2334.960    23574100.039    92509824.895 9     -2237.576

  22262479.692   116990121.026 9      2592.071    22262478.286    91161125.39047
      2019.796

  22579052.154   118653722.364 8      2683.311    22579051.188    92457439.22946
      2090.892

  20329021.606   106829728.485 9      -539.097    20329022.355    83243946.67449
      -420.076    20329022.559    79775449.569 9      -402.566

  21590375.908   115412939.190 8     -3243.428    21590378.973    89765622.993 6
     -2522.665

  19162316.087   102253788.202 9       625.009    19162316.678    79530724.788 8
       486.118

  20828940.085   111303536.472 9     -2967.032    20828940.370    86569419.266 8
     -2307.691

  19213878.615   102637088.579 9       684.785


  22463655.823   119954672.710 6      4228.662    22463657.531    93298092.931 5
      3288.960

  24833305.792   130499894.165 9     -1901.880
                  24833309.625    97451233.409 9     -1420.226    24833307.510
  99993433.475 9     -1457.258    24833308.547    98722334.043 9     -1438.693
  23090802.075   121342983.766 9     -1519.261
                  23090804.579    90613276.380 9     -1134.591    23090802.456
  92977090.783 9     -1164.175    23090803.611    91795184.187 9     -1149.386
 18  4  4  7 24 30.0000000  0 14G02G05G07G09G13G28G30R01R02R11R12R13
                                E07E30
  24150747.536   126913017.756 7     -2859.665    24150744.617    98893254.78746
     -2228.312

  20571729.070   108105167.692 9       236.637    20571727.815    84237784.51948
       184.393

  21520978.368   113093503.568 9     -2035.794    21520976.628    88124801.61447
     -1586.333

  23591216.335   123972671.325 8     -3000.863    23591218.051    96602082.40747
     -2338.334    23591218.278    92577000.511 9     -2240.869

  22247699.681   116912451.646 9      2585.792    22247698.290    91100603.81247
      2014.902

  22563764.271   118573384.119 8      2672.386    22563763.330    92394838.02746
      2082.380

  20332145.273   106846143.454 9      -555.372    20332146.035    83256737.55649
      -432.757    20332146.247    79787707.494 9      -414.743

  21608612.134   115510421.907 8     -3255.586    21608615.272    89841442.820 6
     -2532.124

  19158855.445   102235321.566 9       606.047    19158856.065    79516361.843 8
       471.369

  20845644.950   111392802.137 9     -2983.974    20845645.246    86638848.096 8
     -2320.869

  19210106.195   102616937.350 9       658.542


  22439924.666   119827949.774 6      4219.520    22439926.364    93199530.699 5
      3281.850

  24844182.985   130557054.181 9     -1908.895
                  24844186.832    97493917.810 9     -1425.497    24844184.690
 100037231.363 9     -1462.669    24844185.756    98765575.191 9     -1444.084
  23099510.326   121388745.965 9     -1531.552
                  23099512.843    90647449.442 9     -1143.758    23099510.733
  93012155.316 9     -1173.566    23099511.873    91829802.981 9     -1158.646
 18  4  4  7 25  0.0000000  0 14G02G05G07G09G13G28G30R01R02R11R12R13
                                E07E30
  24167083.387   126998863.039 7     -2863.583    24167080.417    98960147.16647
     -2231.366

  20570431.673   108098349.756 9       217.535    20570430.414    84232471.84048
       169.508

  21532629.156   113154728.907 9     -2046.337    21532627.424    88172509.66647
     -1594.548

  23608358.092   124062751.675 7     -3004.822    23608359.808    96672274.86047
     -2341.423    23608360.018    92644268.281 9     -2243.941

  22232954.442   116834964.908 9      2579.642    22232953.063    91040224.53547
      2010.111

  22548538.192   118493370.757 8      2661.438    22548537.261    92332489.97046
      2073.849

  20335360.169   106863037.811 9      -571.353    20335360.937    83269901.98449
      -445.210    20335361.161    79800323.401 9      -426.625

  21626914.998   115608260.822 8     -3267.281    21626918.129    89917539.688 6
     -2541.221

  19155500.554   102217419.233 9       587.104    19155501.200    79502437.797 8
       456.636

  20862442.842   111482564.970 9     -3000.590    20862443.155    86708663.618 8
     -2333.792

  19206480.108   102597567.831 9       632.349


  22416243.904   119701495.774 6      4210.378    22416245.552    93101177.615 5
      3274.738

  24855099.262   130614419.569 9     -1915.871
                  24855103.150    97536755.562 9     -1430.645    24855100.962
 100081186.628 9     -1467.904    24855102.048    98808971.697 9     -1449.268
  23108286.894   121434867.161 9     -1543.578
                  23108289.448    90681890.574 9     -1152.641    23108287.323
  93047494.918 9     -1182.681    23108288.462    91864693.352 9     -1167.676
 18  4  4  7 25 30.0000000  0 14G02G05G07G09G13G28G30R01R02R11R12R13
                                E07E30
  24183442.554   127084830.979 7     -2867.537    24183439.582    99027135.12947
     -2234.445

  20569242.932   108092102.779 9       198.567    20569241.679    84227604.05348
       154.727

  21544339.453   113216266.965 9     -2056.569    21544337.738    88220461.38248
     -1602.522

  23625522.829   124152952.915 8     -3008.794    23625524.597    96742561.49347
     -2344.516    23625524.807    92711626.281 9     -2246.803

  22218243.737   116757659.661 9      2573.729    22218242.365    90979986.68147
      2005.504

  22533374.077   118413683.175 8      2650.747    22533373.154    92270395.77446
      2065.518

  20338665.712   106880408.538 9      -587.076    20338666.484    83283437.61149
      -457.461    20338666.710    79813295.046 9      -438.418

  21645283.798   115706452.483 8     -3278.999    21645286.877    89993910.958 6
     -2550.333

  19152251.385   102200081.044 9       568.478    19152252.066    79488952.532 8
       442.149

  20879332.713   111572819.367 9     -3016.747    20879333.032    86778861.484 8
     -2346.358

  19203000.067   102578978.300 9       606.579


  22392613.693   119575311.591 6      4201.673    22392615.286    93003034.354 5
      3267.968

  24866054.235   130671988.259 9     -1922.448
                  24866058.150    97579745.125 9     -1435.640    24866055.949
 100125297.689 9     -1473.083    24866057.040    98852522.012 9     -1454.358
  23117131.140   121481344.040 9     -1555.250
                  23117133.735    90716597.319 9     -1161.372    23117131.581
  93083107.068 9     -1191.674    23117132.735    91899852.799 9     -1176.528
 18  4  4  7 26  0.0000000  0 14G02G05G07G09G13G28G30R01R02R11R12R13
                                E07E30
  24199823.241   127170911.994 8     -2871.500    24199820.294    99094211.21647
     -2237.533

  20568161.663   108086420.596 9       179.708    20568160.406    84223176.37248
       140.032

  21556107.735   113278109.780 9     -2066.750    21556106.048    88268650.58648
     -1610.454

  23642709.185   124243267.784 8     -3012.769    23642710.981    96812936.67046
     -2347.614    23642711.256    92779069.142 9     -2249.713

  22203566.453   116680530.111 9      2567.723    22203565.080    90919885.75447
      2000.824

  22518271.206   118334317.418 8      2639.864    22518270.267    92208552.36846
      2057.039

  20342060.428   106898247.857 9      -602.620    20342061.203    83297338.37549
      -469.574    20342061.428    79826616.611 9      -450.076

  21663717.107   115804988.913 8     -3290.530    21663720.159    90070550.377 6
     -2559.302

  19149106.981   102183301.933 9       549.598    19149107.692    79475902.113 8
       427.465

  20896312.649   111663554.914 9     -3032.788    20896312.979    86849433.547 8
     -2358.837

  19199664.775   102561161.702 9       580.772


  22369033.272   119449393.563 6      4192.631    22369034.812    92905098.157 5
      3260.936

  24877046.620   130729753.474 9     -1929.132
                  24877050.525    97622881.436 9     -1440.555    24877048.364
 100169559.310 9     -1478.136    24877049.445    98896220.978 9     -1459.350
  23126041.548   121528168.583 9     -1566.794
                  23126044.169    90751563.682 9     -1170.034    23126041.999
  93118985.604 9     -1200.588    23126043.169    91935275.247 9     -1185.287
 18  4  4  7 26 30.0000000  0 14G02G05G07G09G13G28G30R01R02R11R12R13
                                E07E30
  24216226.033   127257109.152 7     -2875.147    24216223.131    99161377.81547
     -2240.373

  20567189.112   108081309.654 9       160.888    20567187.845    84219193.79748
       125.366

  21567934.789   113340261.377 9     -2076.774    21567933.139    88317080.38748
     -1618.266

  23659918.141   124333701.278 8     -3016.461    23659919.923    96883404.25946
     -2350.490    23659920.337    92846600.588 9     -2252.410

  22188923.897   116603582.976 8      2561.897    22188922.513    90859926.95547
      1996.283

  22503231.213   118255281.737 8      2629.053    22503230.215    92146966.15146
      2048.613

  20345545.204   106916560.458 9      -618.206    20345545.984    83311607.92749
      -481.719    20345546.217    79840291.596 9      -461.625

  21682215.635   115903874.040 7     -3301.740    21682218.713    90147461.019 6
     -2568.021

  19146068.845   102167089.858 9       530.962    19146069.582    79463292.710 8
       412.970

  20913382.954   111754773.386 9     -3048.525    20913383.303    86920381.219 8
     -2371.076

  19196475.303   102544123.602 9       555.010


  22345504.438   119323751.120 6      4183.670    22345505.959    92807376.306 5
      3253.966

  24888077.439   130787720.720 9     -1935.501
                  24888081.333    97666168.632 9     -1445.370    24888079.213
 100213975.741 9     -1483.089    24888080.284    98940072.791 9     -1464.211
  23135018.932   121575345.092 9     -1578.360
                  23135021.563    90786792.886 9     -1178.643    23135019.401
  93155133.825 9     -1209.395    23135020.571    91970963.960 9     -1194.016
 18  4  4  7 27  0.0000000  0 15G02G05G07G09G13G28G30R01R02R11R12R13
                                E07E11E30
  24232650.933   127343422.457 8     -2878.795    24232648.094    99228634.90947
     -2243.218

  20566325.913   108076773.421 9       141.678    20566324.639    84215659.05949
       110.398

  21579820.857   113402723.026 9     -2087.158    21579819.250    88365751.77647
     -1626.357

  23677150.182   124424256.021 7     -3020.389    23677151.914    96953966.33347
     -2353.553    23677152.485    92914222.584 9     -2255.538

  22174316.823   116526822.356 9      2555.627    22174315.428    90800113.50247
      1991.399

  22488255.206   118176582.086 8      2617.803    22488254.151    92085641.76147
      2039.848

  20349120.409   106935348.293 9      -634.131    20349121.190    83326247.80249
      -494.128    20349121.425    79854321.474 9      -473.499

  21700779.672   116003109.677 8     -3313.642    21700782.828    90224644.296 6
     -2577.278

  19143137.884   102151449.694 9       511.937    19143138.638    79451128.128 8
       398.173

  20930543.586   111846474.624 9     -3064.599    20930543.948    86991704.394 8
     -2383.577

  19193432.109   102527866.946 9       528.957


  22322028.415   119198390.621 6      4174.212    22322029.939    92709873.727 6
      3246.611

  24899147.270   130845892.978 9     -1942.474
                  24899151.184    97709608.923 9     -1450.538    24899149.040
 100258549.248 9     -1488.364    24899150.128    98984079.690 9     -1469.424
  28075292.993   147536658.09416       666.638
                  28075293.030   110173480.18817       497.766    28075290.512
 113047560.75417       510.722    28075291.776   111610519.07918       504.171
  23144063.616   121622875.233 9     -1590.158
                  23144066.249    90822286.168 9     -1187.449    23144064.117
  93191553.018 9     -1218.375    23144065.264    92006920.197 9     -1202.922
 18  4  4  7 27 30.0000000  0 15G02G05G07G09G13G28G30R01R02R11R12R13
                                E07E11E30
  24249096.279   127429843.151 7     -2882.668    24249093.501    99295975.67747
     -2246.237

  20565571.125   108072806.953 9       122.632    20565569.842    84212568.30549
        95.557

  21591764.430   113465486.764 9     -2097.303    21591762.841    88414658.55047
     -1634.263

  23694404.014   124514925.203 7     -3024.171    23694405.693    97024617.58147
     -2356.499    23694406.376    92981930.033 9     -2258.342

  22159744.221   116450242.847 9      2549.489    22159742.816    90740441.17147
      1986.615

  22473342.399   118098214.723 8      2606.670    22473341.337    92024576.29247
      2031.172

  20352784.683   106954604.155 9      -649.731    20352785.457    83341252.37549
      -506.283    20352785.690    79868700.853 9      -485.166

  21719407.938   116102688.217 8     -3325.173    21719411.116    90302094.176 6
     -2586.249

  19140313.227   102136376.811 9       492.825    19140313.983    79439404.767 8
       383.309

  20947792.608   111938648.213 9     -3080.370    20947792.983    87063394.957 8
     -2395.844

  19190534.039   102512385.771 9       503.036


  22298604.538   119073308.534 5      4164.482    22298606.044    92612587.689 5
      3239.042

  24910254.925   130904263.972 9     -1949.165
                  24910258.882    97753197.617 9     -1455.468    24910256.663
 100303275.028 9     -1493.412    24910257.787    99028236.925 9     -1474.433
  28071528.049   147516872.838 6       652.762
                  28071527.916   110158705.479 7       487.258    28071525.662
 113032400.606 7       500.038    28071526.770   111595551.645 8       493.687
  23153174.170   121670751.492 9     -1601.746
                  23153176.800    90858037.917 9     -1196.049    23153174.706
  93228237.426 9     -1227.278    23153175.820    92043138.277 9     -1211.666
 18  4  4  7 28  0.0000000  0 15G02G05G07G09G13G28G30R01R02R11R12R13
                                E07E11E30
  24265562.045   127516371.184 7     -2886.673    24265559.318    99363400.08046
     -2249.356

  20564925.410   108069413.727 9       102.968    20564924.122    84209924.23749
        80.235

  21603765.784   113528554.111 9     -2107.943    21603764.176    88463801.91747
     -1642.553

  23711680.128   124605711.419 7     -3028.895    23711681.761    97095360.03547
     -2360.179    23711682.492    93049724.844 9     -2261.621

  22145206.910   116373848.778 8      2542.846    22145205.481    90680913.34447
      1981.439

  22458494.014   118020186.053 8      2594.666    22458492.955    91963774.74747
      2021.818

  20356538.406   106974330.019 9      -665.927    20356539.172    83356623.17249
      -518.904    20356539.406    79883431.197 9      -497.244

  21738100.676   116202611.155 7     -3337.077    21738103.803    90379811.932 6
     -2595.507

  19137595.863   102121876.441 9       473.199    19137596.608    79428126.695 8
       368.044

  20965129.998   112031293.940 9     -3096.557    20965130.380    87135452.724 8
     -2408.434

  19187781.509   102497682.238 9       476.602


  22275233.971   118948511.249 5      4154.446    22275235.454    92515523.178 5
      3231.238

  24921400.964   130962836.661 9     -1956.369
                  24921404.955    97796936.930 9     -1460.861    24921402.675
 100348155.362 9     -1498.977    24921403.819    99072546.749 9     -1479.926
  28067842.690   147497506.070 6       638.175
                  28067842.434   110144243.276 7       476.456    28067840.381
 113017561.136 8       488.819    28067841.421   111580900.807 8       482.662
  23162350.932   121718975.622 9     -1613.780
                  23162353.554    90894049.434 9     -1205.052    23162351.492
  93265188.377 9     -1236.477    23162352.578    92079619.509 9     -1220.765
 18  4  4  7 28 30.0000000  0 16G02G05G07G09G13G28G30R01R02R11R12R13
                                R19E07E11E30
  24282047.863   127603004.483 6     -2889.127    24282045.161    99430906.46546
     -2251.269

  20564389.007   108066594.849 9        84.769    20564387.722    84207727.69748
        66.053

  21615824.732   113591924.075 9     -2117.007    21615823.081    88513181.09747
     -1649.617

  23728978.486   124696614.643 7     -3031.698    23728980.080    97166193.69246
     -2362.361    23728980.811    93117607.055 9     -2263.872

  22130705.167   116297641.572 9      2537.565    22130703.721    90621531.11047
      1977.324

  22443710.661   117942499.117 8      2584.379    22443709.575    91903239.49946
      2013.804

  20360381.479   106994525.415 9      -680.562    20360382.228    83372359.84649
      -530.308    20360382.467    79898512.180 9      -508.278

  21756857.610   116302877.755 6     -3347.479    21756860.733    90457797.082 6
     -2603.592

  19134986.227   102107950.921 9       455.001    19134986.981    79417295.724 8
       353.889

  20982555.146   112124408.560 9     -3111.086    20982555.534    87207875.177 8
     -2419.734

  19185174.792   102483757.497 9       451.576


  22251917.487   118824002.735 6      4145.708    22251918.947    92418683.268 5
      3224.441

  23549683.643                        -471.549    23549673.186
      -366.760

  24932585.474   131021611.526 9     -1962.162
                  24932589.474    97840827.218 9     -1465.253    24932587.195
 100393190.631 9     -1503.489    24932588.324    99117009.526 9     -1484.357
  28064237.154   147478558.956 5       624.628
                  28064236.854   110130094.433 8       466.655    28064234.954
 113003043.198 8       478.764    28064235.946   111566567.425 8       472.594
  23171593.737   121767546.819 9     -1624.318
                  23171596.348    90930320.131 9     -1213.047    23171594.309
  93302405.270 9     -1244.673    23171595.379    92116363.306 9     -1228.859
 18  4  4  7 29  0.0000000  0 15G02G05G07G09G13G28G30R01R02R11R12R13
                                E07E11E30
  24298552.869   127689738.745 6     -2892.478    24298550.172    99498491.52246
     -2253.881

  20563961.731   108064349.426 9        65.123    20563960.444    84205978.00348
        50.745

  21627940.619   113655593.158 9     -2127.444    21627938.928    88562793.34047
     -1657.750

  23746298.710   124787632.697 7     -3036.025    23746300.313    97237116.79147
     -2365.738    23746301.003    93185575.045 8     -2267.133

  22116238.849   116221620.515 9      2530.730    22116237.398    90562293.92447
      1971.998

  22428992.528   117865154.840 8      2572.258    22428991.378    91842971.26746
      2004.359

  20364313.410   107015187.784 9      -696.606    20364314.143    83388460.40149
      -542.810    20364314.377    79913941.874 9      -520.237

  21775678.168   116403484.739 8     -3359.373    21775681.398    90536046.952 6
     -2612.847

  19132484.394   102094600.647 9       435.227    19132485.157    79406912.169 8
       338.509

  21000067.068   112217986.881 9     -3127.035    21000067.470    87280658.286 8
     -2432.139

  19182713.349   102470609.290 9       425.211


  22228655.319   118699784.132 6      4135.496    22228656.769    92322068.829 5
      3216.498

  24943808.113   131080586.807 9     -1969.412
                  24943812.118    97884867.160 9     -1470.603    24943809.891
 100438379.475 9     -1509.003    24943810.985    99161623.921 9     -1489.798
  28060711.238   147460030.457 5       610.449
                  28060710.900   110116258.232 7       455.918    28060709.140
 112988846.040 7       467.847    28060710.083   111552550.745 8       461.776
  23180902.019   121816462.099 9     -1636.369
                  23180904.627    90966847.765 9     -1222.008    23180902.598
  93339885.792 9     -1253.842    23180903.661    92153367.382 9     -1237.929
 18  4  4  7 29 30.0000000  0 15G02G05G07G09G13G28G30R01R02R11R12R13
                                E07E11E30
  24315076.579   127776571.416 7     -2895.803    24315073.887    99566153.27146
     -2256.472

  20563643.731   108062678.220 9        46.417    20563642.432    84204675.74848
        36.168

  21640113.171   113719560.023 9     -2136.855    21640111.438    88612637.62447
     -1665.082

  23763640.711   124878765.350 7     -3039.204    23763642.399    97308129.18147
     -2368.212    23763642.989    93253628.591 8     -2269.495

  22101808.196   116145786.963 9      2524.979    22101806.746    90503202.86147
      1967.516

  22414340.174   117788156.224 8      2560.957    22414338.973    91782972.37347
      1995.552

  20368333.981   107036315.946 9      -711.780    20368334.714    83404923.89949
      -554.634    20368334.933    79929719.387 9      -531.442

  21794562.285   116504430.897 8     -3370.158    21794565.545    90614560.546 6
     -2621.237

  19130090.662   102081827.179 9       416.433    19130091.436    79396977.237 8
       323.892

  21017665.053   112312025.219 9     -3141.845    21017665.474    87353799.205 8
     -2443.657

  19180397.285   102458237.722 9       399.857


  22205448.122   118575859.029 6      4126.359    22205449.549    92225682.665 5
      3209.391

  24955068.897   131139762.633 9     -1975.585
                  24955072.896    97929056.879 9     -1475.172    24955070.734
 100483721.969 9     -1513.761    24955071.800    99206390.030 9     -1494.464
  28057265.162   147441921.482 5       597.078
                  28057264.804   110102735.297 7       446.002    28057263.124
 112974970.334 7       457.572    28057264.054   111538851.424 8       451.665
  23190275.553   121865720.297 9     -1647.333
                  23190278.169    91003631.467 9     -1230.071    23190276.152
  93377629.069 9     -1262.181    23190277.205    92190630.873 9     -1246.141
 18  4  4  7 30  0.0000000  0 15G02G05G07G09G13G28G30R01R02R11R12R13
                                E07E11E30
  24331618.185   127863498.271 7     -2899.076    24331615.484    99633888.46046
     -2259.021

  20563434.903   108061580.754 9        27.076    20563433.606    84203820.56448
        21.097

  21652341.821   113783821.675 9     -2146.889    21652340.039    88662711.61147
     -1672.902

  23781004.134   124970010.929 7     -3043.272    23781005.939    97379229.59347
     -2371.382    23781006.436    93321766.439 9     -2272.647

  22087413.261   116070141.021 9      2518.527    22087411.810    90444257.96447
      1962.489

  22399753.926   117711505.062 8      2549.206    22399752.722    91723244.21847
      1986.394

  20372442.790   107057907.849 9      -727.406    20372443.525    83421748.75749
      -566.810    20372443.739    79945843.214 9      -543.237

  21813509.485   116605713.928 7     -3381.599    21813512.646    90693336.151 6
     -2630.134

  19127805.234   102069631.651 9       396.952    19127806.025    79387491.820 8
       308.741

  21035348.280   112406519.049 9     -3157.214    21035348.718    87427294.386 8
     -2455.611

  19178226.439   102446641.170 9       373.665


  22182296.215   118452229.280 6      4116.157    22182297.600    92129526.236 5
      3201.457

  24966367.623   131199137.848 9     -1982.435
                  24966371.593    97973395.511 9     -1480.522    24966369.458
 100529217.215 9     -1519.054    24966370.528    99251306.969 9     -1499.788
  28053898.808   147424231.491 4       583.108
                  28053898.446   110089525.250 7       435.013    28053896.798
 112961415.664 7       446.463    28053897.737   111525469.057 8       440.788
  23199713.860   121915318.969 9     -1658.860
                  23199716.481    91040669.431 9     -1238.840    23199714.487
  93415633.243 9     -1271.148    23199715.524    92228151.942 9     -1255.009
 18  4  4  7 30 30.0000000  0 15G02G05G07G09G13G28G30R01R02R11R12R13
                                E07E11E30
  24348176.938   127950515.109 7     -2902.173    24348174.224    99701693.77246
     -2261.437

  20563335.018   108061055.856 9         8.089    20563333.721    84203411.55348
         6.303

  21664626.003   113848375.203 9     -2156.513    21664624.185    88713013.03147
     -1680.400

  23798388.604   125061367.283 7     -3046.995    23798390.535    97450416.32546
     -2374.283    23798390.982    93389987.016 9     -2275.191

  22073053.825   115994681.710 9      2512.331    22073052.371    90385458.50747
      1957.660

  22385233.986   117635202.440 8      2537.700    22385232.823    91663787.65547
      1977.428

  20376639.328   107079960.817 9      -742.604    20376640.063    83438932.89149
      -578.652    20376640.272    79962311.334 9      -554.510

  21832518.903   116707330.159 6     -3392.696    21832522.016    90772370.994 6
     -2638.764

  19125628.157   102058014.313 9       377.756    19125628.954    79378456.107 8
       293.811

  21053115.729   112501462.902 9     -3172.092    21053116.160    87501139.579 8
     -2467.183

  19176200.258   102435817.633 9       348.084


  22159199.912   118328896.461 6      4106.316    22159201.270    92033600.752 6
      3193.803

  24977704.006   131258710.726 9     -1988.927
                  24977707.958    98017881.701 9     -1485.207    24977705.809
 100574863.921 9     -1523.964    24977706.902    99296373.415 9     -1504.582
  28050611.691   147406958.47814       569.105
                  28050611.305   110076627.271 7       424.830    28050609.984
 112948181.229 7       435.844    28050610.960   111512402.856 8       430.373
  23209216.398   121965255.161 9     -1670.070
                  23209219.023    91077959.427 9     -1247.086    23209217.055
  93453896.012 9     -1279.574    23209218.078    92265928.323 9     -1263.351
 18  4  4  7 31  0.0000000  0 15G02G05G07G09G13G28G30R01R02R11R12R13
                                E07E11E30
  24364752.783   128037621.722 7     -2904.821    24364750.065    99769569.05346
