     2.11           OBSERVATION DATA    M                   RINEX VERSION / TYPE
GM10 V4.20                              2018 04 04 08:00    PGM / RUN BY / DATE 
FOUR                                                        MARKER NAME         
FOUR                                                        MARKER NUMBER       
EC+G                HEIG                                    OBSERVER / AGENCY   
GM10BLEU            LEICA GM10          4.20/6.524          REC # / TYPE / VERS 
AR10BLEU            LEIAR10         NONE                    ANT # / TYPE        
  4344605.8637   487412.4746  4630063.5541                  APPROX POSITION XYZ 
       -0.0507        0.0000        0.0000                  ANTENNA: DELTA H/E/N
     1     1                                                WAVELENGTH FACT L1/2
    11    C1    L1    P2    L2    C2    C5    L5    C7    L7# / TYPES OF OBSERV 
          C8    L8                                          # / TYPES OF OBSERV 
                                                            COMMENT             
    30.000                                                  INTERVAL            
  2018    04    04    08    00   30.0000000     GPS         TIME OF FIRST OBS   
  2018    04    04    10    14    0.0000000     GPS         TIME OF LAST OBS    
    18                                                      LEAP SECONDS        
    25                                                      # OF SATELLITES     
BIT 2 OF LLI FLAGS DATA COLLECTED UNDER A/S CONDITION       COMMENT             
SNR is mapped to RINEX snr flag value [1-9]                 COMMENT             
LX:    >= 25dBHz -> 1; 26-27dBHz -> 2; 28-31dBHz -> 3       COMMENT             
       32-35dBHz -> 4; 36-38dBHz -> 5; 39-41dBHz -> 6       COMMENT             
       42-44dBHz -> 7; 45-48dBHz -> 8; >= 49dBHz -> 9       COMMENT             
                                                            END OF HEADER       
 18 04 04 08 00 30.0000000  0 16G05G07G13G15G20G28G30R01R02R03R11R12
                                R13E07E19E30
  20757524.043   109081521.46819  20757518.552    84998561.57558  20757519.245  
                                                                                
                
  22493958.756   118206550.82918  22493953.061    92108972.58456  22493953.609  
                                                                                
                
  21281027.094   111832552.53419  21281021.134    87142224.01457                
                                                                                
                
  23722505.277   124662611.11118  23722500.328    97139670.22456  23722500.812  
                                                                                
                
  23830560.053   125230430.74317  23830554.295    97582114.14555                
                                                                                
                
  21656996.869   113808287.48918  21656991.187    88681765.45257                
                                                                                
                
  20781446.650   109207241.76819  20781443.223    85096534.37258  20781444.020  
                                                                                
                
  23080020.889   123375933.43215  23080022.867    95959059.21613  23080023.160  
                                                                                
                
  19205056.714   102481862.51219  19205055.778    79708110.55818  19205056.674  
                                                                                
                
  20579713.970   110164821.14418  20579711.323    85683736.65118  20579711.996  
                                                                                
                
  22248650.543   118890037.58218  22248649.766    92470022.62817  22248650.773  
                                                                                
                
  19313643.396   103170017.18218                                                
                                                                                
                
  20895939.903   111583160.89817  20895939.257    86786893.57816  20895940.764  
                                                                                
                
  25729654.175   135210238.56519                                                
  25729656.541   100968690.39219  25729652.900   103602643.15319  25729654.261  
 102285666.65118
  24909873.565   130902271.65818                                                
  24909873.011    97751691.94319  24909869.248   100301724.76119  24909870.436  
  99026704.22718
  23888376.141   125534261.06719                                                
  23888377.126    93743116.54619  23888372.909    96188578.98119  23888374.475  
  94965846.14418
 18 04 04 08 01  0.0000000  0 16G05G07G13G15G20G28G30R01R02R03R11R12
                                R13E07E19E30
  20764108.548   109116123.16309  20764103.055    85025523.91148  20764103.747  
                                                                                
                
  22509041.350   118285810.24508  22509035.641    92170733.13146  22509036.197  
                                                                                
                
  21269229.264   111770554.58709  21269223.309    87093913.93247                
                                                                                
                
  23704183.708   124566330.56808  23704178.733    97064646.42545  23704179.216  
                                                                                
                
  23812773.476   125136961.60807  23812767.656    97509281.09045                
                                                                                
                
  21647384.184   113757772.69308  21647378.512    88642403.31347                
                                                                                
                
  20790524.554   109254946.43509  20790521.129    85133706.82148  20790521.932  
                                                                                
                
  23102221.175   123494606.85504  23102223.280    96051360.75003  23102223.491  
                                                                                
                
  19209980.515   102508136.73109  19209979.546    79728546.03708  19209980.452  
                                                                                
                
  20563181.080   110076319.21508  20563178.452    85614901.80508  20563179.108  
                                                                                
                
  22270260.727   119005515.73508  22270259.964    92559838.92907  22270260.985  
                                                                                
                
  19320045.963   103204218.83609                                                
                                                                                
                
  20877266.396   111483445.48506  20877265.750    86709337.16906  20877267.254  
                                                                                
                
  25743204.118   135281443.87309                                                
  25743206.450   101021863.16109  25743202.837   103657203.02909  25743204.203  
 102339532.97508
  24898315.088   130841531.37908                                                
  24898314.516    97706333.95009  24898310.738   100255183.51209  24898311.938  
  98980754.60808
  23901255.204   125601940.93608                                                
  23901256.195    93793656.67909  23901251.983    96240437.56409  23901253.551  
  95017045.50108
 18 04 04 08 01 30.0000000  0 16G05G07G13G15G20G28G30R01R02R03R11R12
                                R13E07E19E30
  20770800.323   109151288.65109  20770794.831    85052925.57848  20770795.526  
                                                                                
                
  22524160.551   118365262.12408  22524154.826    92232643.66346  22524155.398  
                                                                                
                
  21257480.197   111708812.83609  21257474.249    87045803.47647                
                                                                                
                
  23685882.100   124470155.00908  23685877.108    96989704.44345  23685877.593  
                                                                                
                
  23795043.989   125043792.53306  23795038.155    97436681.80345                
                                                                                
                
  21637864.806   113707748.08608  21637859.144    88603423.10647                
                                                                                
                
  20799673.961   109303026.89709  20799670.543    85171172.11048  20799671.344  
                                                                                
                
  23124462.952   123613501.63804  23124465.116    96143834.41003  23124465.302  
                                                                                
                
  19215025.701   102535058.71009  19215024.716    79749485.33608  19215025.629  
                                                                                
                
  20546718.041   109988191.30008  20546715.409    85546357.88808  20546716.055  
                                                                                
                
  22291913.590   119121222.00508  22291912.841    92649832.66707  22291913.883  
                                                                                
                
  19326576.693   103239104.85408                                                
                                                                                
                
  20858681.480   111384203.25607  20858680.831    86632148.79006  20858682.335  
                                                                                
                
  25756788.582   135352830.56809                                                
  25756790.896   101075171.37309  25756787.293   103711901.89009  25756788.663  
 102393536.50908
  24886787.958   130780955.83508                                                
  24886787.380    97661098.96309  24886783.583   100208768.48709  24886784.798  
  98934929.60508
  23914180.792   125669865.19209                                                
  23914181.802    93844379.27009  23914177.595    96292483.37909  23914179.177  
  95068429.70608
 18 04 04 08 02  0.0000000  0 16G05G07G13G15G20G28G30R01R02R03R11R12
                                R13E07E19E30
  20777597.957   109187010.38009  20777592.477    85080760.67148  20777593.167  
                                                                                
                
  22539314.668   118444897.54808  22539308.936    92294697.21746  22539309.529  
                                                                                
                
  21245778.706   111647321.14208  21245772.767    86997887.88147                
                                                                                
                
  23667599.295   124374078.41907  23667594.301    96914839.59746  23667594.785  
                                                                                
                
  23777370.716   124950919.09607  23777364.931    97364312.89945                
                                                                                
                
  21628437.686   113658208.31108  21628432.016    88564820.69747                
                                                                                
                
  20808893.213   109351474.35009  20808889.807    85208923.36248  20808890.601  
                                                                                
                
  23146744.439   123732608.65903  23146746.635    96236473.12603  23146746.809  
                                                                                
                
  19220190.927   102562621.32409  19220189.929    79770922.90908  19220190.850  
                                                                                
                
  20530324.193   109900433.66308  20530321.565    85478101.95108  20530322.207  
                                                                                
                
  22313607.144   119237145.73308  22313606.399    92739995.52807  22313607.459  
                                                                                
                
  19333233.750   103274665.37908                                                
                                                                                
                
  20840184.367   111285429.95007  20840183.699    86555325.15506  20840185.220  
                                                                                
                
  25770406.084   135424390.93309                                                
  25770408.412   101128609.27909  25770404.780   103766733.83209  25770406.167  
 102447671.43708
  24875291.036   130720539.03108                                                
  24875290.459    97615982.50809  24875286.645   100162475.07609  24875287.870  
  98889224.67908
  23927151.175   125738024.93609                                                
  23927152.188    93895277.76009  23927147.984    96344709.66909  23927149.579  
  95119992.09508
 18 04 04 08 02 30.0000000  0 16G05G07G13G15G20G28G30R01R02R03R11R12
                                R13E07E19E30
  20784501.964   109223291.14409  20784496.503    85109031.37848  20784497.184  
                                                                                
                
  22554504.184   118524718.96408  22554498.466    92356895.69046  22554499.062  
                                                                                
                
  21234125.772   111586084.59209  21234119.843    86950171.08947                
                                                                                
                
  23649336.300   124278105.92808  23649331.328    96840055.84246  23649331.819  
                                                                                
                
  23759754.959   124858347.74407  23759749.225    97292179.38245                
                                                                                
                
  21619103.899   113609159.08108  21619098.229    88526600.53847                
                                                                                
                
  20818182.764   109400291.16809  20818179.371    85246962.41948  20818180.156  
                                                                                
                
  23169065.893   123851929.49503  23169068.148    96329278.17903  23169068.281  
                                                                                
                
  19225477.105   102590829.34309  19225476.114    79792862.46008  19225477.038  
                                                                                
                
  20514000.870   109813053.67908  20513998.234    85410139.75008  20513998.877  
                                                                                
                
  22335341.517   119353287.47908  22335340.799    92830327.96907  22335341.837  
                                                                                
                
  19340017.378   103310902.16809                                                
                                                                                
                
  20821776.235   111187131.66307  20821775.557    86478870.94506  20821777.098  
                                                                                
                
  25784057.302   135496128.53209                                                
  25784059.657   101182179.54909  25784055.959   103821701.58809  25784057.383  
 102501940.44808
  24863825.297   130660286.15408                                                
  24863824.724    97570988.47909  24863820.898   100116307.28809  24863822.123  
  98843643.76608
  23940166.855   125806422.60109                                                
  23940167.861    93946353.91409  23940163.667    96397118.25109  23940165.259  
  95171734.46308
 18 04 04 08 03  0.0000000  0 16G05G07G13G15G20G28G30R01R02R03R11R12
                                R13E07E19E30
  20791511.068   109260124.22909  20791505.626    85137732.47548  20791506.298  
                                                                                
                
  22569727.782   118604719.47209  22569722.091    92419233.72346  22569722.669  
                                                                                
                
  21222520.461   111525098.33909  21222514.539    86902649.34247                
                                                                                
                
  23631092.337   124182233.60008  23631087.375    96765350.16745  23631087.879  
                                                                                
                
  23742196.170   124766075.49607  23742190.433    97220278.93944                
                                                                                
                
  21609862.611   113560596.00208  21609856.953    88488759.21047                
                                                                                
                
  20827541.203   109449470.00409  20827537.818    85285283.56848  20827538.601  
                                                                                
                
  23191425.945   123971456.47404  23191428.288    96422243.55402  23191428.368  
                                                                                
                
  19230883.030   102619676.35409  19230882.050    79815299.00208  19230882.978  
                                                                                
                
  20497747.666   109726048.86608  20497745.039    85342469.31208  20497745.686  
                                                                                
                
  22357114.996   119469638.09307  22357114.317    92920822.85607  22357115.318  
                                                                                
                
  19346926.120   103347806.99408                                                
                                                                                
                
  20803456.358   111089304.64207  20803455.674    86402783.27706  20803457.227  
                                                                                
                
  25797741.090   135568037.18709                                                
  25797743.491   101235877.52709  25797739.716   103876800.38409  25797741.176  
 102556338.83008
  24852389.888   130600192.68908                                                
  24852389.323    97526113.48908  24852385.494   100070261.63609  24852386.710  
  98798183.44408
  23953226.405   125875050.77909                                                
  23953227.372    93997602.22309  23953223.203    96449703.44209  23953224.779  
  95223651.20808
 18 04 04 08 03 30.0000000  0 16G05G07G13G15G20G28G30R01R02R03R11R12
                                R13E07E19E30
  20798626.706   109297517.20709  20798621.293    85166869.85148  20798621.958  
                                                                                
                
  22584986.682   118684905.47808  22584981.007    92481716.31146  22584981.566  
                                                                                
                
  21210964.679   111464372.36409  21210958.765    86855330.41047                
                                                                                
                
  23612869.302   124086471.17508  23612864.343    96690730.12345  23612864.863  
                                                                                
                
  23724696.360   124674113.22706  23724690.576    97148620.08144                
                                                                                
                
  21600715.848   113512529.57608  21600710.211    88451304.86347                
                                                                                
                
  20836969.804   109499017.59309  20836966.415    85323892.07248  20836967.201  
                                                                                
                
  23213825.981   124091195.93103  23213825.769    96515373.18412  23213830.219  
                                                                                
                
  19236410.443   102649171.77109  19236409.471    79838239.88708  19236410.400  
                                                                                
                
  20481566.638   109639430.72608  20481564.014    85275099.67108  20481564.669  
                                                                                
                
  22378928.575   119586202.83907  22378927.910    93011484.24607  22378928.906  
                                                                                
                
  19353960.960   103385385.49508                                                
                                                                                
                
  20785226.827   110991959.98607  20785226.154    86327070.78306  20785227.692  
                                                                                
                
  25811458.914   135640124.77909                                                
  25811461.365   101289709.15909  25811457.517   103932036.32709  25811458.998  
 102610872.62708
  24840986.659   130540268.27708                                                
  24840986.089    97481364.72908  24840982.275   100024345.53509  24840983.479  
  98752851.01308
  23966331.094   125943916.20809                                                
  23966331.975    94049027.72608  23966327.861    96502470.45209  23966329.414  
  95275747.46608
 18 04 04 08 04  0.0000000  0 16G05G07G13G15G20G28G30R01R02R03R11R12
                                R13E07E19E30
  20805848.232   109335466.64809  20805842.841    85196440.83248  20805843.511  
                                                                                
                
  22600280.135   118765272.92709  22600274.463    92544340.26446  22600275.007  
                                                                                
                
  21199458.184   111403905.32809  21199452.275    86808213.23447                
                                                                                
                
  23594666.960   123990817.32408  23594661.991    96616194.65545  23594662.532  
                                                                                
                
  23707255.592   124582461.36806  23707249.781    97077203.07345                
                                                                                
                
  21591663.430   113464958.98508  21591657.814    88414236.89347                
                                                                                
                
  20846467.825   109548929.93409  20846464.423    85362784.79348  20846465.214  
                                                                                
                
  23236264.649   124211143.31704  23236265.314    96608665.59402  23236266.362  
                                                                                
                
  19242059.018   102679313.51809  19242058.055    79861683.44408  19242058.991  
                                                                                
                
  20465458.074   109553200.52508  20465455.471    85208031.74508  20465456.135  
                                                                                
                
  22400781.084   119702975.69407  22400780.393    93102307.50807  22400781.417  
                                                                                
                
  19361121.006   103423632.99808                                                
                                                                                
                
  20767087.618   110895097.67807  20767086.935    86251733.44806  20767088.471  
                                                                                
                
  25825210.269   135712388.45009                                                
  25825212.777   101343672.24409  25825208.860   103987407.15209  25825210.353  
 102665539.58208
  24829615.376   130480511.72908                                                
  24829614.796    97436741.32309  24829610.989    99978558.02009  24829612.186  
  98707645.55108
  23979480.171   126013014.92309                                                
  23979480.936    94100627.43608  23979476.886    96555416.20409  23979478.424  
  95328020.19908
 18 04 04 08 04 30.0000000  0 16G05G07G13G15G20G28G30R01R02R03R11R12
                                R13E07E19E30
  20813176.039   109373974.50909  20813170.654    85226446.93348  20813171.332  
                                                                                
                
  22615608.448   118845823.51409  22615602.776    92607106.91946  22615603.311  
                                                                                
                
  21188001.718   111343701.17109  21187995.803    86761300.90347                
                                                                                
                
  23576486.002   123895275.94407  23576481.019    96541746.85946  23576481.570  
                                                                                
                
  23689874.887   124491125.42507  23689869.091    97006032.20744                
                                                                                
                
  21582706.195   113417888.42508  21582700.589    88377558.53847                
                                                                                
                
  20856035.478   109599208.18309  20856032.077    85401962.63148  20856032.865  
                                                                                
                
  23258742.271   124331299.32404  23258744.090    96702120.23102  23258743.993  
                                                                                
                
  19247829.172   102710104.08709  19247828.208    79885631.64608  19247829.151  
                                                                                
                
  20449423.172   109467364.69608  20449420.583    85141270.55708  20449421.262  
                                                                                
                
  22422672.408   119819956.23808  22422671.702    93193292.33307  22422672.742  
                                                                                
                
  19368406.287   103462549.56408                                                
                                                                                
                
  20749039.715   110798722.94807  20749039.023    86176775.34906  20749040.557  
                                                                                
                
  25838995.559   135784830.49909                                                
  25838998.108   101397768.54209  25838994.147   104042914.67109  25838995.645  
 102720341.48408
  24818276.784   130420927.03208                                                
  24818276.214    97392246.25708  24818272.409    99932902.22109  24818273.591  
  98662570.11908
  23992673.876   126082348.11008                                                
  23992674.555    94152402.19209  23992670.551    96608541.60109  23992672.084  
  95380470.27208
 18 04 04 08 05  0.0000000  0 16G05G07G13G15G20G28G30R01R02R03R11R12
                                R13E07E19E30
  20820608.325   109413031.38709  20820602.923    85256880.85248  20820603.616  
                                                                                
                
  22630969.776   118926547.78508  22630964.103    92670008.95046  22630964.629  
                                                                                
                
  21176593.968   111283753.01409  21176588.038    86714588.05247                
                                                                                
                
  23558325.284   123799840.96808  23558320.313    96467381.97046  23558320.872  
                                                                                
                
  23672553.220   124400099.74507  23672547.431    96935103.11444                
                                                                                
                
  21573842.939   113371311.78108  21573837.336    88341265.07647                
                                                                                
                
  20865670.920   109649842.79309  20865667.511    85441418.18048  20865668.301  
                                                                                
                
  23281256.901   124451653.70103  23281258.977    96795729.14002  23281260.497  
                                                                                
                
  19253719.492   102741535.92109  19253718.520    79910078.62308  19253719.472  
                                                                                
                
  20433461.075   109381918.44208  20433458.504    85074812.36108  20433459.195  
                                                                                
                
  22444600.432   119937133.02107  22444599.736    93284429.81006  22444600.755  
                                                                                
                
  19375814.840   103502124.91708                                                
                                                                                
                
  20731082.007   110702829.85107  20731081.302    86102191.85106  20731082.835  
                                                                                
                
  25852813.189   135857442.53808                                                
  25852815.760   101451991.78909  25852811.784   104098552.43809  25852813.280  
 102775271.99308
  24806969.620   130361507.56108                                                
  24806969.078    97347874.57308  24806965.276    99887373.02109  24806966.439  
  98617619.67108
  24005910.343   126151906.14308                                                
  24005911.007    94204344.83409  24005907.001    96661839.28309  24005908.549  
  95433090.43908
 18 04 04 08 05 30.0000000  0 15G05G07G13G15G20G28G30R02R03R11R12R13
                                E07E19E30
  20828145.802   109452640.93909  20828140.370    85287745.41548  20828141.082  
                                                                                
                
  22646364.603   119007448.09108  22646358.941    92733048.12346  22646359.472  
                                                                                
                
  21165235.922   111224066.15909  21165229.984    86668078.83247                
                                                                                
                
  23540185.835   123704517.68707  23540180.904    96393104.10346  23540181.459  
                                                                                
                
  23655291.979   124309391.54306  23655286.183    96864421.43745                
                                                                                
                
  21565074.804   113325234.98108  21565069.210    88305361.09347                
                                                                                
                
  20875374.695   109700836.35409  20875371.285    85481153.40048  20875372.075  
                                                                                
                
  19259730.780   102773613.20209  19259729.817    79935027.58608  19259730.772  
                                                                                
                
  20417573.029   109296868.61708  20417570.460    85008662.50708  20417571.166  
                                                                                
                
  22466565.381   120054506.97507  22466564.700    93375720.63906  22466565.689  
                                                                                
                
  19383347.036   103542360.55808                                                
                                                                                
                
  20713215.777   110607425.13307  20713215.055    86027988.19306  20713216.593  
                                                                                
                
  25866663.878   135930228.31009                                                
  25866666.455   101506344.77609  25866662.487   104154323.33609  25866663.974  
 102830333.93808
  24795694.917   130302258.73908                                                
  24795694.403    97303630.32408  24795690.616    99841974.58809  24795691.763  
  98572798.33808
  24019190.054   126221691.56509                                                
  24019190.749    94256457.30509  24019186.710    96715311.25309  24019188.279  
  95485882.66208
 18 04 04 08 06  0.0000000  0 16G05G07G13G15G20G28G30R01R02R03R11R12
                                R13E07E19E30
  20835789.003   109492806.08909  20835783.538    85319042.92148  20835784.265  
                                                                                
                
  22661793.468   119088527.38308  22661787.830    92796226.76046  22661788.375  
                                                                                
                
  21153928.707   111164646.37509  21153922.779    86621777.70347                
                                                                                
                
  23522068.717   123609311.84708  23522063.816    96318917.77745  23522064.356  
                                                                                
                
  23638092.456   124219007.60005  23638086.672    96793992.41344                
                                                                                
                
  21556402.906   113279663.87508  21556397.312    88269851.16047                
                                                                                
                
  20885147.286   109752191.62909  20885143.875    85521170.48948  20885144.666  
                                                                                
                
  23326401.555   124692976.22814                                                
                                                                                
                
  19265863.920   102806340.74809  19265862.972    79960482.32808  19265863.923  
                                                                                
                
  20401760.737   109212224.14808  20401758.157    84942827.91808  20401758.882  
                                                                                
                
  22488567.474   120172079.39108  22488566.794    93467165.79207  22488567.776  
                                                                                
                
  19391003.196   103583258.56908                                                
                                                                                
                
  20695442.195   110512515.23107  20695441.447    85954169.40406  20695442.996  
                                                                                
                
  25880548.407   136003191.78509                                                
  25880550.981   101560830.43909  25880547.024   104210230.37509  25880548.507  
 102885530.29008
  24784453.765   130243186.25508                                                
  24784453.285    97259517.75609  24784449.515    99796711.24709  24784450.642  
  98528110.37808
  24032513.603   126291707.25209                                                
  24032514.351    94308741.71009  24032510.272    96768959.62909  24032511.855  
  95538849.05308
 18 04 04 08 06 30.0000000  0 16G05G07G13G15G20G28G30R01R02R03R11R12
                                R13E07E19E30
  20843533.886   109533505.62609  20843528.415    85350756.83148  20843529.146  
                                                                                
                
  22677252.253   119169763.95108  22677246.634    92859527.95746  22677247.198  
                                                                                
                
  21142668.658   111105474.35909  21142662.735    86575669.62647                
                                                                                
                
  23503970.351   123514204.33208  23503965.484    96244808.01245  23503966.014  
                                                                                
                
  23620951.243   124128930.19406  23620945.483    96723802.25245                
                                                                                
                
  21547823.608   113234579.34008  21547818.017    88234720.36347                
                                                                                
                
  20894984.504   109803886.46409  20894981.095    85561452.15248  20894981.890  
                                                                                
                
  23349027.037   124813913.90903                                                
                                                                                
                
  19272114.996   102839697.58209  19272114.049    79986426.51108  19272115.006  
                                                                                
                
  20386020.790   109127966.92608  20386018.189    84877294.51608  20386018.927  
                                                                                
                
  22510602.171   120289825.88808  22510601.515    93558746.34007  22510602.493  
                                                                                
                
  19398778.939   103624795.35008                                                
                                                                                
                
  20677757.867   110418081.87607  20677757.113    85880721.24806  20677758.661  
                                                                                
                
  25894462.710   136076311.83909                                                
  25894465.261   101615433.06209  25894461.312   104266257.41609  25894462.804  
 102940845.11908
  24773242.500   130184270.76408                                                
  24773242.033    97215522.42409  24773238.291    99751568.21709  24773239.399  
  98483541.19908
  24045876.729   126361930.97509                                                
  24045877.521    94361181.49909  24045873.424    96822767.43209  24045875.005  
  95591972.84808
 18 04 04 08 07  0.0000000  0 16G05G07G13G15G20G28G30R01R02R03R11R12
                                R13E07E19E30
  20851385.836   109574767.94409  20851380.391    85382909.27948  20851381.117  
                                                                                
                
  22692746.248   119251185.54108  22692740.651    92922973.33346  22692741.221  
                                                                                
                
  21131461.590   111046580.74609  21131455.659    86529778.49547                
                                                                                
                
  23485896.598   123419226.14608  23485891.729    96170799.03145  23485892.261  
                                                                                
                
  23603874.506   124039191.53407  23603868.753    96653876.01444                
                                                                                
                
  21539342.852   113190012.65108  21539337.267    88199993.08647                
                                                                                
                
  20904891.625   109855948.72909  20904888.218    85602020.14048  20904889.013  
                                                                                
                
  23371689.799   124935059.21803                                                
                                                                                
                
  19278489.642   102873713.79709  19278488.710    80012883.54108  19278489.665  
                                                                                
                
  20370359.412   109044130.30508  20370356.791    84812088.25908  20370357.534  
                                                                                
                
  22532674.451   120407773.38808  22532673.805    93650483.23807  22532674.794  
                                                                                
                
  19406679.359   103666998.00308                                                
                                                                                
                
  20660168.829   110324157.35207  20660168.082    85807668.85306  20660169.625  
                                                                                
                
  25908412.384   136149617.58609                                                
  25908414.911   101670174.31309  25908410.979   104322426.71309  25908412.475  
 102996300.39108
  24762066.983   130125543.08708                                                
  24762066.526    97171667.33809  24762062.806    99706569.07809  24762063.897  
  98439114.09108
  24059284.799   126432390.73209                                                
  24059285.636    94413797.50409  24059281.540    96876756.03709  24059283.110  
  95645275.15108
 18 04 04 08 07 30.0000000  0 15G05G07G13G15G20G28G30R02R03R11R12R13
                                E07E19E30
  20859344.320   109616590.14409  20859338.926    85415497.99848  20859339.639  
                                                                                
                
  22708274.872   119332789.01408  22708269.307    92986560.42146  22708269.871  
                                                                                
                
  21120307.391   110987965.07809  21120301.451    86484103.96847                
                                                                                
                
  23467847.348   123324376.85408  23467842.460    96096890.51945  23467842.999  
                                                                                
                
  23586862.433   123949792.58507  23586856.638    96584214.47844                
                                                                                
                
  21530960.638   113145963.88908  21530955.046    88165669.40847                
                                                                                
                
  20914868.040   109908375.15809  20914864.624    85642871.90548  20914865.422  
                                                                                
                
  19284987.543   102908387.79309  19284986.613    80039852.19408  19284987.571  
                                                                                
                
  20354776.998   108960716.44108  20354774.339    84747210.81508  20354775.102  
                                                                                
                
  22554783.387   120525916.82808  22554782.743    93742372.56606  22554783.742  
                                                                                
                
  19414703.626   103709862.34708                                                
                                                                                
                
  20642675.205   110230742.37007  20642674.464    85735012.77206  20642675.997  
                                                                                
                
  25922396.990   136223106.85809                                                
  25922399.490   101725052.61209  25922395.580   104378736.62009  25922397.068  
 103051894.49708
  24750927.107   130067002.77808                                                
  24750926.662    97127952.18409  24750922.955    99661713.52909  24750924.037  
  98394828.73708
  24072737.152   126503083.19708                                                
  24072738.025    94466587.28409  24072733.944    96930922.92609  24072735.492  
  95698753.48208
 18 04 04 08 08  0.0000000  0 15G05G07G13G15G20G28G30R02R03R11R12R13
                                E07E19E30
  20867401.988   109658933.51209  20867396.661    85448492.80448  20867397.353  
                                                                                
                
  22723830.695   119414535.37108  22723825.160    93050258.84846  22723825.717  
                                                                                
                
  21109199.195   110929591.02109  21109193.258    86438617.66748                
                                                                                
                
  23449815.791   123229620.58308  23449810.888    96023054.49745  23449811.436  
                                                                                
                
  23569908.321   123860698.31306  23569902.503    96514790.38845                
                                                                                
                
  21522670.099   113102396.81408  21522664.500    88131721.04947                
                                                                                
                
  20924906.329   109961126.62109  20924902.922    85683976.91348  20924903.710  
                                                                                
                
  19291601.651   102943681.78209  19291600.720    80067303.04008  19291601.688  
                                                                                
                
  20339267.072   108877690.45008  20339264.408    84682635.01708  20339265.178  
                                                                                
                
  22576921.229   120644214.75207  22576920.589    93834382.05306  22576921.583  
                                                                                
                
  19422844.196   103753347.90308                                                
                                                                                
                
  20625270.214   110137800.65007  20625269.482    85662724.76606  20625271.007  
                                                                                
                
  25936409.269   136296741.59409                                                
  25936411.742   101780039.54709  25936407.845   104435157.98009  25936409.326  
 103107598.64108
  24739816.005   130008613.58908                                                
  24739815.577    97084349.86409  24739811.863    99616973.75909  24739812.947  
  98350657.68708
  24086226.320   126573969.23308                                                
  24086227.225    94519521.62209  24086223.172    96985238.12909  24086224.690  
  95752378.25508
 18 04 04 08 08 30.0000000  0 15G05G07G13G15G20G28G30R02R03R11R12R13
                                E07E19E30
  20875565.380   109701832.43309  20875560.095    85481920.52248  20875560.771  
                                                                                
                
  22739420.228   119496458.91308  22739414.732    93114095.34746  22739415.274  
                                                                                
                
  21098143.900   110871495.08909  21098137.962    86393348.11947                
                                                                                
                
  23431808.894   123134993.73808  23431803.985    95949319.29646  23431804.549  
                                                                                
                
  23553019.440   123771947.00806  23553013.625    96445633.61445                
                                                                                
                
  21514478.237   113059348.35608  21514472.631    88098176.81847                
                                                                                
                
  20935012.860   110014236.77809  20935009.461    85725361.44448  20935010.245  
                                                                                
                
  19298338.543   102979631.08409  19298337.609    80095263.59708  19298338.585  
                                                                                
                
  20323836.870   108795091.57508  20323834.188    84618391.47408  20323834.969  
                                                                                
                
  22599094.147   120762700.03307  22599093.524    93926537.27206  22599094.497  
                                                                                
                
  19431107.233   103797487.34408                                                
                                                                                
                
  20607960.962   110045370.35107  20607960.234    85590834.56906  20607961.750  
                                                                                
                
  25950455.848   136370556.65009                                                
  25950458.283   101835161.15709  25950454.412   104491717.55509  25950455.881  
 103163439.23708
  24728740.638   129950412.15108                                                
  24728740.222    97040887.74509  24728736.491    99572377.84509  24728737.589  
  98306628.67408
  24099758.679   126645082.48608                                                
  24099759.588    94572625.69309  24099755.577    97039727.48409  24099757.054  
  95806174.96008
 18 04 04 08 09  0.0000000  0 15G05G07G13G15G20G28G30R02R03R11R12R13
                                E07E19E30
  20883833.662   109745282.42809  20883828.397    85515777.63848  20883829.062  
                                                                                
                
  22755042.490   119578554.42108  22755037.034    93178065.83846  22755037.557  
                                                                                
                
  21087141.129   110813675.10509  21087135.195    86348293.57747                
                                                                                
                
  23413826.300   123040494.57508  23413821.374    95875683.59746  23413821.951  
                                                                                
                
  23536195.668   123683537.62307  23536189.902    96376743.22544                
                                                                                
                
  21506384.671   113016816.41608  21506379.054    88065035.06247                
                                                                                
                
  20945186.718   110067700.68109  20945183.337    85767021.60748  20945184.110  
                                                                                
                
  19305197.673   103016232.59909  19305196.744    80123731.42208  19305197.725  
                                                                                
                
  20308486.440   108712919.62508  20308483.783    84554479.95908  20308484.563  
                                                                                
                
  22621300.924   120881365.95608  22621300.312    94018832.93206  22621301.284  
                                                                                
                
  19439491.560   103842274.93509                                                
                                                                                
                
  20590747.322   109953450.60007  20590746.602    85519341.45406  20590748.116  
                                                                                
                
  25964536.034   136444548.21909                                                
  25964538.440   101890414.55609  25964534.587   104548412.35209  25964536.044  
 103219413.33308
  24717700.600   129892396.35808                                                
  24717700.190    96997564.25709  24717696.436    99527924.17609  24717697.555  
  98262740.09308
  24113333.368   126716418.06309                                                
  24113334.270    94625895.75409  24113330.311    97094387.21009  24113331.752  
  95860139.85908
 18 04 04 08 09 30.0000000  0 15G05G07G13G15G20G28G30R02R03R11R12R13
                                E07E19E30
  20892203.935   109789268.29209  20892198.663    85550052.30748  20892199.325  
                                                                                
                
  22770694.583   119660806.60308  22770689.155    93242158.40146  22770689.662  
                                                                                
                
  21076188.464   110756118.50608  21076182.530    86303444.28647                
                                                                                
                
  23395865.654   122946110.80008  23395860.705    95802137.83646  23395861.296  
                                                                                
                
  23519434.962   123595459.18407  23519429.248    96308110.60443                
                                                                                
                
  21498387.114   112974789.00109  21498381.487    88032286.44547                
                                                                                
                
  20955424.946   110121502.90709  20955421.560    85808945.41848  20955422.333  
                                                                                
                
  19312176.368   103053472.27309  19312175.451    80152695.60708  19312176.437  
                                                                                
                
  20293213.805   108631164.19308  20293211.166    84490892.40008  20293211.950  
                                                                                
                
  22643538.236   121000195.07907  22643537.585    94111255.50607  22643538.593  
                                                                                
                
  19447994.063   103887693.66508                                                
                                                                                
                
  20573627.012   109862029.29507  20573626.298    85448236.02106  20573627.819  
                                                                                
                
  25978647.058   136518701.96809                                                
  25978649.457   101945789.08709  25978645.595   104605231.42909  25978647.049  
 103275510.13908
  24706693.510   129834553.70208                                                
  24706693.076    96954370.07009  24706689.319    99483603.19109  24706690.461  
  98218982.51408
  24126947.451   126787960.58509                                                
  24126948.348    94679320.33809  24126944.428    97149205.52609  24126945.854  
  95914261.31208
 18 04 04 08 10  0.0000000  0 15G05G07G13G15G20G28G30R02R03R11R12R13
                                E07E19E30
  20900676.123   109833789.74009  20900670.804    85584744.33048  20900671.480  
                                                                                
                
  22786376.360   119743214.83708  22786370.941    93306372.58646  22786371.436  
                                                                                
                
  21065286.313   110698827.37909  21065280.381    86258801.85747                
                                                                                
                
  23377927.376   122851844.46808  23377922.414    95728683.56446  23377923.008  
                                                                                
                
  23502737.805   123507714.82207  23502732.069    96239738.33645                
                                                                                
                
  21490485.956   112933268.14008  21490480.321    87999932.54747                
                                                                                
                
  20965727.419   110175642.68309  20965724.027    85851132.23448  20965724.804  
                                                                                
                
  19319274.737   103091350.49909  19319273.858    80182156.43308  19319274.835  
                                                                                
                
  20278019.697   108549829.01008  20278017.064    84427631.70308  20278017.849  
                                                                                
                
  22665805.661   121119185.21507  22665804.983    94203803.34607  22665806.007  
                                                                                
                
  19456614.443   103933741.99208                                                
                                                                                
                
  20556600.644   109771109.53307  20556599.970    85377520.65706  20556601.479  
                                                                                
                
  25992789.030   136593018.27309                                                
  25992791.449   102001284.97109  25992787.556   104662175.04209  25992789.019  
 103331729.88508
  24695719.788   129776886.29409                                                
