     2.11           OBSERVATION DATA    M (MIXED)           RINEX VERSION / TYPE
teqc  2016Nov7                          20180405 05:03:57UTCPGM / RUN BY / DATE
Linux 2.4.21-27.ELsmp|Opteron|gcc|Linux x86_64|=+           COMMENT
teqc  2016Nov7                          20180405 05:03:57UTCCOMMENT
teqc  2016Nov7      IGN-RGP             20180404 08:14:25UTCCOMMENT
teqc  2016Nov7                          20180404 08:14:25UTCCOMMENT
teqc  2016Nov7      IGN-RGP             20180404 08:14:23UTCCOMMENT
teqc  2016Nov7      IGN-RGP             20180404 08:14:22UTCCOMMENT
BIT 2 OF LLI FLAGS DATA COLLECTED UNDER A/S CONDITION       COMMENT
MRON                                                        MARKER NAME
19666M001                                                   MARKER NUMBER
Automatic           OSU THETA                               OBSERVER / AGENCY
5245K53169          TRIMBLE NETR9       4.81                REC # / TYPE / VERS
5000114707          TRM57971.00     TZGD                    ANT # / TYPE
  4352245.9460   484521.6220  4623551.6420                  APPROX POSITION XYZ
        0.0000        0.0000        0.0000                  ANTENNA: DELTA H/E/N
     1     1                                                WAVELENGTH FACT L1/2
    21    L1    L2    C1    P1    P2    D1    D2    S1    S2# / TYPES OF OBSERV
          L5    C5    D5    S5    L7    C7    D7    S7    L8# / TYPES OF OBSERV
          C8    D8    S8                                    # / TYPES OF OBSERV
    30.0000                                                 INTERVAL
    18                                                      LEAP SECONDS
 SNR is mapped to RINEX snr flag value [0-9]                COMMENT
  L1 & L2: min(max(int(snr_dBHz/6), 0), 9)                  COMMENT
Forced Modulo Decimation to 30 seconds                      COMMENT
  2018     4     4     7     0    0.0000000     GPS         TIME OF FIRST OBS
                                                            END OF HEADER
 18  4  4  7  0  0.0000000  0 21G13R11R12G09G28R13G02G06G30R03G07R01
                                R02G05R18E07E30E12E19E20S20
 120876427.223 7  94189425.70844  23002016.992                    23002019.395
                                        45.900          28.800



 107707339.790 8  83772387.474 7  20155958.945    20155959.406    20155961.758
                                        49.200          47.500



 104497325.714 7                  19562119.375    19562118.273
                                        47.100



 119758405.552 7  93318302.326 7  22789280.617                    22789287.102
                                        45.700          45.100    89430045.350 7
  22789286.543                          47.600


 122822844.923 6  95706150.57644  23372413.000                    23372418.188
                                        41.300          26.100



 126234387.076 5  98182500.882 4  23639688.766    23639687.609    23639692.637
                                        34.300          28.700



 122859485.900 7  95734713.30044  23379400.789                    23379402.480
                                        42.400          28.100



 132498409.581 6 103245555.741 6  25213623.680                    25213630.707
                                        38.600          37.500    98943658.440 6
  25213631.734                          41.100


 106618922.112 8  83079774.790 8  20288922.469                    20288927.977
                                        50.000          52.000    79618116.437 9
  20288927.707                          55.800


 122697239.555 7  95431192.564 7  22920874.625    22920874.090    22920878.477
                                        43.300          42.900



 110540599.989 8  86135576.888 7  21035182.852                    21035185.895
                                        50.900          47.900



 111192001.274 7  86482967.417 6  20800831.625    20800830.434    20800836.246
                                        44.800          40.900



 103768193.436 8  80708623.062 8  19446115.242    19446113.688    19446117.160
                                        49.400          48.400



 109103642.767 8  85015831.785 8  20761729.641                    20761733.000
                                        49.100          48.700



 124617370.673 6  96924635.894 6  23345036.242    23345035.637    23345039.172
                                        39.300          38.400



 128014273.359 8                  24360306.172
                                        48.200                    95595084.994 8
  24360310.211                          50.600    98088868.715 8  24360309.695
                        51.500    96841980.959 9  24360310.828
        56.900
 119628344.500 8                  22764515.664
                                        50.600                    89332844.911 8
  22764518.777                          50.800    91663267.111 8  22764517.793
                        51.300    90498040.618 9  22764519.039
        56.700
 138769830.231 6                  26407021.844
                                        38.000                   103626816.900 6
  26407021.926                          38.500   106330128.203 6  26407021.738
                        40.100   104978476.655 7  26407022.660
        44.700
 139118313.455 6                  26473330.070
                                        39.800                   103887043.130 7
  26473332.930                          42.200   106597134.657 6  26473331.617
                        41.100   105242096.000 7  26473332.973
        47.000
  63295606.771 7                  12044752.602
                                        43.200



 202520934.770 6                  38538457.359
                                        40.900



 18  4  4  7  0 30.0000000  0 21G13R11R12G09G28R13G02G06G30R03G07R01
                                R02G05R18E07E30E12E19E20S20
 120791289.851 7  94123084.90144  22985815.305                    22985818.313
      2835.619        2209.574          45.400          28.600



 107768832.872 8  83820215.407 7  20167467.820    20167467.930    20167470.195
     -2060.491       -1602.594          49.400          47.000



 104440676.645 7                  19551515.164    19551513.359
      1876.381                          46.700



 119841815.781 7  93383297.304 7  22805153.539                    22805159.504
     -2782.758       -2168.377          46.100          44.900    89492332.167 7
  22805158.301       -2078.038          47.500


 122730469.677 6  95634169.87743  23354834.430                    23354838.641
      3076.164        2396.997          40.900          23.900



 126098601.276 5  98076889.717 5  23614262.016    23614259.566    23614264.477
      4524.335        3518.902          34.200          30.600



 122935732.180 6  95794125.95244  23393910.234                    23393911.324
     -2545.812       -1983.742          41.600          27.400



 132604667.566 6 103328354.134 5  25233843.797                    25233851.309
     -3540.397       -2758.751          38.200          35.800    99023006.882 6
  25233852.164       -2643.804          40.500


 106611679.931 8  83074131.530 8  20287544.445                    20287549.992
       233.097         181.634          50.000          51.500    79612708.316 9
  20287550.195         174.062          55.700


 122585870.713 7  95344572.391 7  22900070.609    22900069.488    22900073.117
      3711.688        2886.861          44.200          43.700



 110584624.562 8  86169881.729 7  21043560.797                    21043563.551
     -1473.881       -1148.479          49.800          47.300



 111270878.694 7  86544316.474 6  20815586.922    20815586.551    20815592.297
     -2635.913       -2050.145          45.000          41.500



 103725251.955 8  80675224.128 7  19438068.063    19438067.211    19438070.527
      1424.012        1107.568          48.800          47.900



 109070021.327 8  84989633.264 8  20755332.070                    20755335.152
      1112.415         866.813          49.100          48.200



 124682908.068 6  96975609.439 6  23357314.461    23357313.148    23357316.367
     -2194.058       -1706.502          40.000          38.600



 128061545.410 7                  24369302.203
     -1579.073                          47.800                    95630385.535 8
  24369305.734       -1179.175          50.700    98125090.138 8  24369305.453
     -1209.938          51.300    96877741.941 9  24369306.426       -1194.556
        56.900
 119655622.673 8                  22769706.719
      -915.986                          50.900                    89353214.978 8
  22769709.586        -684.017          50.800    91684168.572 8  22769708.555
      -701.861          50.900    90518676.378 9  22769709.941        -692.941
        56.600
 138794559.085 6                  26411727.914
      -830.864                          37.700                   103645283.283 6
  26411727.719        -620.455          39.400   106349076.305 6  26411727.438
      -636.631          39.500   104997183.897 7  26411728.520        -628.543
        44.900
 139045830.811 6                  26459537.680
      2415.375                          39.600                   103832916.503 7
  26459540.086        1803.686          42.000   106541596.011 6  26459539.102
      1850.743          40.100   105187263.361 7  26459539.883        1827.219
        46.800
  63269033.756 7                  12039695.672
       882.387                          43.200



 202523583.015 6                  38538956.203
       -88.287                          40.600



 18  4  4  7  1  0.0000000  0 21G13R11R12G09G28R13G02G06G30R03G07R01
                                R02G05R18E07E30E12E19E20S20
 120706293.449 7  94056853.95744  22969641.609                    22969644.332
      2830.943        2205.928          45.300          27.300



 107830988.877 8  83868558.973 8  20179098.602    20179098.828    20179101.883
     -2082.513       -1619.745          49.300          48.000



 104384766.246 7                  19541048.016    19541046.211
      1851.764                          47.400



 119925376.812 7  93448409.754 7  22821053.453                    22821059.238
     -2787.793       -2172.305          46.600          43.200    89554731.596 7
  22821060.793       -2081.789          47.400


 122638280.277 6  95562334.03743  23337291.359                    23337295.695
      3069.938        2392.166          41.900          23.500



 125962930.975 5  97971368.453 4  23588854.641    23588852.895    23588857.461
      4520.503        3515.885          33.800          29.000



 123012242.946 7  95853744.68544  23408470.289                    23408471.059
     -2554.590       -1990.585          43.000          27.800



 132710829.291 6 103411077.600 5  25254045.320                    25254052.660
     -3537.185       -2756.251          38.500          35.700    99102283.512 6
  25254053.688       -2641.403          41.100


 106604951.643 8  83068888.699 8  20286264.141                    20286269.988
       216.016         168.328          53.100          51.900    79607683.947 9
  20286269.957         161.308          55.700


 122474540.257 7  95257982.054 7  22879273.648    22879271.941    22879274.641
      3710.422        2885.863          44.100          42.600



 110629044.631 8  86204494.754 7  21052013.414                    21052016.500
     -1487.014       -1158.708          51.700          47.700



 111350167.091 7  86605985.206 6  20830418.898    20830418.293    20830424.199
     -2649.560       -2060.777          44.900          41.200



 103682768.387 8  80642181.350 8  19430107.422    19430106.219    19430109.387
      1408.801        1095.730          49.900          48.300



 109036914.667 8  84963835.857 7  20749032.031                    20749035.137
      1095.260         853.448          50.800          47.800



 124749032.128 6  97027039.239 6  23369701.422    23369699.055    23369703.688
     -2213.552       -1721.642          38.800          39.700



 128109023.782 8                  24378337.227
     -1585.932                          48.900                    95665840.142 8
  24378340.402       -1184.300          50.600    98161469.651 8  24378340.402
     -1215.194          51.400    96913658.998 9  24378341.320       -1199.742
        56.800
 119683315.691 8                  22774976.391
      -929.762                          50.300                    89373894.827 8
  22774979.270        -694.301          50.800    91705387.900 8  22774978.848
      -712.413          50.700    90539625.971 9  22774979.727        -703.364
        56.500
 138819693.553 6                  26416510.930
      -844.365                          37.900                   103664052.511 6
  26416510.273        -630.526          39.000   106368335.161 6  26416509.008
      -646.975          38.100   105016197.944 7  26416511.328        -638.755
        43.900
 138973392.877 6                  26445753.563
      2413.899                          39.800                   103778823.265 6
  26445754.984        1802.588          41.300   106486091.623 6  26445754.422
      1849.609          39.400   105132464.544 7  26445755.250        1826.105
        45.800
  63242673.685 7                  12034679.367
       875.270                          43.700



 202526229.598 6                  38539458.047
       -88.004                          39.900



 18  4  4  7  1 30.0000000  0 21G13R11R12G09G28R13G02G06G30R03G07R01
                                R02G05R18E07E30E12E19E20S20
 120621438.882 7  93990733.52944  22953493.070                    22953496.477
      2826.184        2202.228          44.500          27.400



 107893804.704 8  83917415.710 8  20190854.891    20190853.355    20190855.977
     -2104.439       -1636.781          49.300          48.300



 104329596.476 7                  19530720.438    19530719.219
      1827.032                          47.600



 120009087.807 7  93513639.076 7  22836983.641                    22836988.863
     -2792.759       -2176.183          47.600          42.300    89617243.048 7
  22836991.000       -2085.499          47.000


 122546280.041 7  95490645.57643  23319784.703                    23319787.797
      3063.608        2387.229          42.000          23.900



 125827379.533 5  97865939.609 5  23563470.820    23563468.254    23563473.742
      4516.439        3512.782          34.500          30.900



 123089015.207 7  95913567.20044  23423078.023                    23423080.387
     -2563.257       -1997.334          42.800          25.800



 132816892.368 6 103493724.066 6  25274228.789                    25274236.633
     -3533.802       -2753.606          37.400          38.100    99181486.370 7
  25274237.605       -2638.875          42.000


 106598736.786 8  83064045.953 8  20285081.320                    20285087.281
       198.905         154.995          52.400          52.100    79603042.979 9
  20285086.664         148.536          55.600


 122363249.969 7  95171422.917 7  22858484.094    22858482.270    22858485.629
      3708.984        2884.755          43.000          43.200



 110673858.496 8  86239414.649 7  21060540.867                    21060544.285
     -1500.125       -1168.926          51.300          47.700



 111429865.492 7  86667972.839 6  20845328.750    20845327.559    20845333.891
     -2663.202       -2071.390          44.900          41.800



 103640744.820 8  80609496.354 8  19422231.203    19422230.703    19422233.820
      1393.343        1083.704          49.300          48.600



 109004323.927 8  84938440.470 8  20742829.867                    20742833.332
      1078.044         840.033          50.000          48.200



 124815739.394 6  97078922.624 6  23382197.180    23382196.574    23382201.211
     -2232.935       -1736.711          39.600          39.200



 128156708.421 8                  24387411.211
     -1592.807                          49.100                    95701448.783 8
  24387414.184       -1189.433          49.900    98198007.211 8  24387414.371
     -1220.467          51.500    96949732.101 9  24387415.293       -1204.951
        56.700
 119711422.524 8                  22780325.117
      -943.543                          50.800                    89394883.689 8
  22780327.902        -704.597          50.400    91726924.296 8  22780327.293
      -722.971          51.200    90560888.600 9  22780328.324        -713.788
        56.600
 138845232.665 6                  26421370.352
      -857.848                          36.700                   103683123.907 6
  26421370.617        -640.604          38.900   106387904.068 6  26421370.008
      -657.312          38.900   105035518.095 7  26421371.336        -648.963
        44.200
 138901000.385 6                  26431977.438
      2412.346                          39.900                   103724763.957 6
  26431979.750        1801.426          41.400   106430622.031 6  26431977.594
      1848.416          38.300   105077700.101 7  26431978.914        1824.922
        45.600
  63216527.385 7                  12029704.023
       868.087                          43.600



 202528874.769 6                  38539964.563
       -88.220                          40.800



 18  4  4  7  2  0.0000000  0 21G13R11R12G09G28R13G02G06G30R03G07R01
                                R02G05R18E07E30E12E19E20S20
 120536726.860 7  93924724.17244  22937372.742                    22937376.598
      2821.427        2198.513          44.600          27.800



 107957276.790 8  83966782.887 8  20202731.508    20202731.500    20202734.641
     -2126.244       -1653.758          49.100          48.200



 104275168.630 7                  19520530.828    19520529.844
      1802.297                          47.700



 120092948.086 8  93578984.711 7  22852943.164                    22852948.520
     -2797.761       -2180.071          48.100          44.100    89679865.962 7
  22852948.137       -2089.241          47.400


 122454471.992 7  95419106.87543  23302314.258                    23302316.875
      3057.125        2382.183          42.500          23.000



 125691950.431 5  97760605.829 4  23538108.922    23538105.770    23538111.871
      4512.277        3509.549          32.200          29.800



 123166046.023 6  95973591.17744  23437737.180                    23437738.730
     -2571.860       -2004.044          41.500          27.500



 132922853.781 6 103576291.359 6  25294393.203                    25294400.664
     -3530.394       -2750.944          37.000          38.400    99260613.328 7
  25294400.992       -2636.323          42.500


 106593034.818 8  83059602.875 8  20283996.016                    20284002.230
       181.800         141.655          51.200          51.300    79598785.019 9
  20284002.078         135.762          55.800


 122252001.661 6  95084896.499 6  22837700.727    22837699.957    22837703.090
      3707.599        2883.683          41.600          41.600



 110719064.326 8  86274639.985 7  21069143.328                    21069146.695
     -1513.162       -1179.085          51.300          47.200



 111509973.149 7  86730278.730 6  20860314.547    20860313.941    20860319.758
     -2676.848       -2081.989          44.500          40.900



 103599183.593 8  80577170.937 8  19414443.094    19414442.242    19414445.203
      1377.879        1071.687          50.000          49.000



 108972250.968 8  84913448.547 8  20736726.844                    20736730.266
      1060.730         826.543          50.800          48.500



 124883026.141 6  97131256.759 6  23394803.039    23394801.609    23394806.090
     -2252.126       -1751.683          40.500          40.200



 128204599.182 8                  24396524.313
     -1599.682                          48.800                    95737211.347 8
  24396527.824       -1194.571          49.700    98234702.703 8  24396527.684
     -1225.728          51.300    96985961.130 9  24396528.668       -1210.147
        56.600
 119739942.044 8                  22785752.438
      -957.280                          51.100                    89416180.735 8
  22785754.750        -714.853          49.900    91748776.915 8  22785754.469
      -733.503          51.000    90582463.426 9  22785755.344        -724.172
        56.400
 138871175.226 6                  26426307.781
      -871.238                          38.500                   103702496.551 6
  26426307.828        -650.597          40.900   106407782.117 6  26426307.641
      -667.571          40.100   105055143.440 7  26426308.137        -659.087
        45.500
 138828653.772 6                  26418210.211
      2410.842                          40.200                   103670738.902 6
  26418211.672        1800.304          40.000   106375187.628 6  26418211.250
      1847.269          39.400   105022970.372 7  26418211.668        1823.784
        45.100
  63190595.447 7                  12024769.172
       860.958                          43.000



 202531518.858 6                  38540464.391
       -87.885                          40.400



 18  4  4  7  2 30.0000000  0 21G13R11R12G09G28R13G02G06G30R03G07R01
                                R02G05R18E07E30E12E19E20S20
 120452158.211 7  93858826.53044  22921280.016                    22921284.313
      2816.630        2194.774          44.700          27.100



 108021402.026 8  84016658.051 8  20214732.242    20214732.117    20214734.594
     -2148.047       -1670.691          49.500          48.300



 104221484.646 7                  19510481.453    19510479.766
      1777.468                          47.800



 120176956.973 7  93644446.159 7  22868929.477                    22868934.867
     -2802.717       -2183.934          47.600          43.400    89742599.843 7
  22868934.605       -2092.940          47.800


 122362858.323 6  95347719.62043  23284879.094                    23284884.031
      3050.578        2377.070          39.400          22.300



 125556646.151 5  97655369.193 5  23512769.469    23512767.137    23512773.395
      4508.023        3506.292          32.000          30.600



 123243332.947 7  96033814.69844  23452444.633                    23452445.957
     -2580.365       -2010.669          42.900          27.600



 133028711.124 6 103658777.530 6  25314535.586                    25314544.449
     -3526.867       -2748.206          37.400          39.100    99339662.569 6
  25314544.895       -2633.699          40.700


 106587845.269 8  83055559.071 8  20283008.695                    20283014.254
       164.690         128.328          51.800          50.700    79594909.714 9
  20283014.457         122.978          55.600


 122140797.387 6  94998404.290 6  22816927.719    22816927.066    22816930.414
      3706.089        2882.486          40.500          41.700



 110764660.527 8  86310169.480 7  21077819.945                    21077823.238
     -1526.181       -1189.231          51.400          47.300



 111590488.617 7  86792901.827 6  20875376.477    20875376.223    20875381.988
     -2690.441       -2092.552          44.300          41.100



 103558086.986 8  80545206.910 8  19406741.828    19406740.625    19406743.766
      1362.368        1059.612          50.100          48.500



 108940697.346 8  84888861.305 8  20730722.688                    20730726.184
      1043.389         813.030          50.300          49.200



 124950888.642 6  97184038.703 6  23407516.102    23407514.320    23407518.512
     -2271.329       -1766.581          40.800          39.300



 128252696.043 8                  24405676.484
     -1606.569                          48.500                    95773127.813 8
  24405680.441       -1199.708          49.500    98271556.127 8  24405680.160
     -1231.005          51.300    97022346.075 9  24405681.121       -1215.361
        56.500
 119768873.243 8                  22791257.578
      -971.030                          50.700                    89437785.201 8
  22791260.316        -725.121          50.300    91770944.968 8  22791259.566
      -744.031          50.800    90604349.691 9  22791260.660        -734.577
        56.400
 138897520.436 6                  26431320.680
      -884.666                          37.100                   103722169.899 6
  26431320.074        -660.623          37.900   106427968.648 6  26431319.793
      -677.856          39.400   105075073.383 7  26431321.246        -669.245
        44.400
 138756353.949 6                  26404451.609
      2409.192                          41.100                   103616748.772 6
  26404453.078        1799.076          39.400   106319789.041 6  26404452.938
      1846.007          39.300   104968276.011 7  26404453.152        1822.540
        44.800
  63164878.797 7                  12019875.602
       853.790                          44.000



 202534162.368 6                  38540968.281
       -88.197                          38.800



 18  4  4  7  3  0.0000000  0 21G13R11R12G09G28R13G02G06G30R03G07R01
                                R02G05R18E07E30E12E19E20S20
 120367733.321 7  93793040.92544  22905214.523                    22905218.316
      2811.835        2191.034          45.000          28.100



 108086177.480 8  84067038.940 8  20226854.133    20226854.125    20226856.820
     -2169.653       -1687.502          49.200          48.000



 104168546.071 7                  19500571.672    19500570.219
      1752.598                          47.300



 120261114.103 7  93710023.140 7  22884943.398                    22884948.813
     -2807.627       -2187.761          46.700          42.100    89805444.397 8
  22884950.074       -2096.599          48.000


 122271442.774 6  95276486.76843  23267483.938                    23267487.836
      3043.978        2371.932          38.800          22.500



 125421470.043 5  97550232.275 5  23487455.742    23487454.703    23487460.168
      4503.712        3502.921          33.900          32.400



 123320873.050 7  96094235.51944  23467199.406                    23467200.766
     -2588.750       -2017.201          42.700          26.000



 133134462.246 6 103741180.954 6  25334659.695                    25334668.934
     -3523.315       -2745.437          36.300          38.500    99418632.535 6
  25334668.734       -2631.040          40.800


 106583167.904 8  83051914.367 8  20282118.930                    20282124.348
       147.646         115.051          51.000          51.500    79591416.876 9
  20282123.961         110.263          55.600


 122029639.636 6  94911948.272 6  22796161.242    22796160.004    22796164.277
      3704.479        2881.235          39.000          41.000



 110810645.919 8  86346002.241 7  21086570.984                    21086574.340
     -1539.134       -1199.328          52.300          47.300



 111671411.609 7  86855841.913 6  20890515.297    20890514.340    20890519.719
     -2703.992       -2103.104          44.900          40.900



 103517457.447 8  80513606.150 8  19399127.930    19399126.492    19399129.711
      1346.746        1047.472          49.500          48.500



 108909664.408 8  84864679.790 8  20724817.016                    20724820.277
      1026.003         799.484          48.800          48.600



 125019323.496 6  97237265.790 6  23420336.359    23420334.930    23420338.043
     -2290.379       -1781.412          41.500          39.300



 128300999.261 8                  24414868.289
     -1613.444                          48.700                    95809198.374 8
  24414872.512       -1204.845          49.900    98308567.658 8  24414871.902
     -1236.272          51.200    97058887.123 9  24414872.945       -1220.560
        56.500
 119798215.312 8                  22796840.945
      -984.703                          50.800                    89459696.478 8
  22796843.582        -735.331          50.600    91793427.847 8  22796842.926
      -754.512          51.100    90626546.770 9  22796844.168        -744.925
        56.200
 138924267.463 6                  26436410.672
      -898.036                          38.800                   103742143.324 6
  26436410.887        -670.611          38.700   106448463.133 6  26436410.746
      -688.102          39.500   105095307.333 7  26436411.141        -679.357
        44.600
 138684101.744 6                  26390702.508
      2407.629                          40.200                   103562794.194 6
  26390704.344        1797.907          38.900   106264426.961 6  26390703.500
      1844.807          39.900   104913617.679 7  26390704.516        1821.357
        44.800
  63139378.289 7                  12015023.055
       846.534                          43.600



 202536802.301 6                  38541473.266
       -87.806                          40.800



 18  4  4  7  3 30.0000000  0 21G13R11R12G09G28R13G02G06G30R03G07R01
                                R02G05R18E07E30E12E19E20S20
 120283453.104 7  93727368.03244  22889176.766                    22889180.566
      2807.013        2187.271          44.600          27.600



 108151599.726 8  84117922.904 7  20239096.891    20239097.000    20239099.426
     -2191.119       -1704.201          49.400          47.900



 104116354.439 7                  19490801.195    19490799.035
      1727.690                          47.500



 120345418.617 7  93775714.918 6  22900985.859                    22900990.543
     -2812.515       -2191.575          46.200          41.400    89868399.028 8
  22900992.211       -2100.250          48.400


 122180228.098 6  95205410.49043  23250127.281                    23250130.141
      3037.229        2366.655          39.600          22.500



 125286425.868 5  97445197.983 5  23462167.938    23462165.254    23462170.863
      4499.384        3499.515          34.400          34.200



 123398663.472 7  96154851.40044  23482002.172                    23482004.254
     -2596.994       -2023.629          42.100          26.400



 133240104.284 5 103823499.363 6  25354762.680                    25354771.129
     -3519.556       -2742.515          35.700          36.500    99497520.995 6
  25354771.223       -2628.248          39.800


 106579002.072 8  83048668.272 8  20281326.023                    20281331.871
       130.641         101.798          51.100          51.700    79588306.031 9
  20281331.488          97.561          55.700


 121918529.919 6  94825529.612 6  22775403.859    22775404.148    22775407.633
      3702.878        2880.022          40.500          40.300



 110857018.492 8  86382136.712 7  21095395.125                    21095398.625
     -1551.959       -1209.316          51.300          47.200



 111752740.794 7  86919097.896 6  20905728.945    20905728.457    20905734.543
     -2717.510       -2113.615          44.400          40.900



 103477297.566 8  80482370.681 8  19391602.063    19391601.211    19391604.398
      1331.075        1035.296          49.400          48.500



 108879153.234 8  84840904.846 8  20719011.242                    20719014.195
      1008.610         785.926          50.300          49.700



 125088327.234 6  97290935.345 6  23433262.273    23433261.551    23433264.766
     -2309.217       -1796.075          40.300          39.400



 128349508.615 8                  24424099.680
     -1620.285                          48.400                    95845422.867 8
  24424103.797       -1209.951          49.700    98345737.136 8  24424103.000
     -1241.515          51.000    97095584.108 9  24424104.176       -1225.734
        56.500
 119827967.023 8                  22802502.445
      -998.306                          50.800                    89481913.665 8
  22802505.336        -745.484          49.800    91816224.608 8  22802504.820
      -764.934          50.900    90649053.740 9  22802505.848        -755.212
        56.200
 138951415.256 6                  26441576.742
      -911.368                          38.500                   103762416.004 6
  26441576.406        -680.570          38.500   106469264.659 6  26441576.219
      -698.321          39.100   105115844.435 7  26441577.023        -689.442
        44.200
 138611897.772 6                  26376963.016
      2406.004                          40.700                   103508875.633 6
  26376963.375        1796.689          38.500   106209101.838 6  26376964.453
      1843.558          40.800   104858995.836 7  26376964.340        1820.130
        45.300
  63114094.662 7                  12010211.688
       839.301                          43.000



 202539440.384 6                  38541981.391
       -87.949                          40.900



 18  4  4  7  4  0.0000000  0 21G13R11R12G09G28R13G02G06G30R03G07R01
                                R02G05R18E07E30E12E19E20S20
 120199318.518 7  93661808.64144  22873165.898                    22873170.234
      2802.129        2183.470          44.700          28.100



 108217665.339 8  84169307.266 7  20251460.891    20251460.293    20251462.801
     -2212.515       -1720.822          49.600          47.700



 104064911.341 7                  19481169.688    19481169.055
      1702.695                          47.200



 120429869.839 7  93841520.988 6  22917056.828                    22917061.672
     -2817.387       -2195.370          45.800          41.800    89931463.199 7
  22917061.113       -2103.892          47.800


 122089216.997 6  95134492.75044  23232807.477                    23232812.238
      3030.415        2361.358          40.100          24.000



 125151516.036 5  97340268.213 5  23436901.695    23436901.359    23436906.895
      4494.806        3495.919          34.000          35.300



 123476701.248 7  96215660.03544  23496853.438                    23496854.113
     -2605.226       -2030.044          42.200          26.000



 133345634.975 5 103905731.018 5  25374844.289                    25374853.637
     -3515.867       -2739.629          32.400          33.200    99576326.323 6
  25374853.785       -2625.484          36.800


 106575347.287 8  83045820.392 8  20280630.352                    20280636.055
       113.604          88.525          50.300          51.300    79585576.808 9
  20280635.496          84.832          55.600


 121807470.710 7  94739150.257 6  22754659.438    22754658.785    22754661.684
      3701.127        2878.677          43.200          39.800



 110903776.621 8  86418571.610 7  21104293.250                    21104296.426
     -1564.815       -1219.334          52.600          47.400



 111834475.277 7  86982669.143 6  20921020.227    20921018.918    20921024.660
     -2730.985       -2124.116          44.300          40.000



 103437609.014 8  80451501.800 8  19384164.469    19384163.148    19384166.566
      1315.332        1023.061          49.900          49.000



 108849166.041 8  84817538.199 8  20713304.438                    20713307.895
       991.120         772.302          50.300          48.100



 125157895.936 7  97345044.272 6  23446295.836    23446294.523    23446298.227
     -2328.071       -1810.693          42.100          40.400



 128398224.123 8                  24433369.906
     -1627.166                          48.600                    95881801.312 8
  24433373.648       -1215.094          50.100    98383064.586 8  24433372.992
     -1246.791          51.200    97132437.053 9  24433374.156       -1230.938
        56.400
 119858127.337 8                  22808242.094
     -1011.922                          50.600                    89504435.983 8
  22808244.695        -755.657          50.000    91839334.456 8  22808243.988
      -775.368          50.100    90671869.823 9  22808245.043        -765.513
        56.000
 138978962.706 6                  26446818.695
      -924.676                          38.600                   103782987.134 6
  26446819.172        -690.503          38.900   106490372.432 6  26446818.563
      -708.522          39.300   105136683.887 7  26446819.246        -699.510
        44.300
 138539742.723 6                  26363232.203
      2404.371                          40.700                   103454993.606 6
  26363233.516        1795.472          38.900   106153814.200 6  26363233.656
      1842.318          41.600   104804411.007 7  26363233.957        1818.892
        45.500
  63089028.660 7                  12005441.883
       832.002                          43.500



 202542079.151 6                  38542479.625
       -88.030                          40.300



 18  4  4  7  4 30.0000000  0 21G13R11R12G09G28R13G02G06G30R03G07R01
                                R02G05R18E07E30E12E19E20S20
 120115330.125 7  93596363.15844  22857183.859                    22857187.945
      2797.243        2179.672          44.200          28.500



 108284370.712 8  84221189.223 7  20263942.734    20263943.195    20263945.766
     -2233.805       -1737.407          49.500          47.200



 104014217.835 7                  19471680.336    19471679.352
      1677.672                          47.900



 120514466.669 7  93907440.581 6  22933154.156                    22933160.039
     -2822.250       -2199.155          45.800          41.700    89994636.107 7
  22933159.949       -2107.522          47.900


 121998411.829 6  95063735.48343  23215528.586                    23215532.453
      3023.480        2355.957          41.700          22.800



 125016743.767 5  97235445.345 5  23411663.648    23411661.668    23411667.273
      4490.133        3492.327          35.900          32.700



 123554983.092 7  96276658.83344  23511749.398                    23511750.645
     -2613.327       -2036.347          43.000          25.300



 133451051.145 5 103987873.446 5  25394906.656
     -3512.021       -2736.650          30.500          30.600    99655046.157 5
  25394913.113       -2622.619          33.600


 106572202.514 8  83043369.914 8  20280032.016                    20280037.223
        96.597          75.269          51.500          51.700    79583228.438 9
  20280037.012          72.135          55.500


 121696463.534 7  94652811.322 6  22733922.313    22733921.309    22733924.848
      3699.370        2877.285          44.600          40.500



 110950918.237 8  86455305.325 7  21113263.992                    21113266.945
     -1577.568       -1229.267          52.300          47.600



 111916613.493 7  87046554.374 6  20936384.719    20936383.996    20936389.535
     -2744.438       -2134.548          44.500          40.200



 103398393.749 8  80421001.042 8  19376815.883    19376814.328    19376818.035
      1299.500        1010.717          49.200          49.200



 108819703.158 8  84794580.107 8  20707698.102                    20707701.445
       973.621         758.667          50.900          49.200



 125228025.376 6  97399589.397 6  23459433.477    23459431.461    23459434.992
     -2346.594       -1825.148          41.300          40.000



 128447145.232 8                  24442679.219
     -1634.029                          48.400                    95918333.287 8
  24442683.203       -1220.216          50.100    98420549.576 8  24442682.500
     -1252.047          50.200    97169445.535 9  24442683.652       -1236.128
        56.400
 119888694.702 8                  22814058.836
     -1025.487                          51.600                    89527262.255 8
  22814061.613        -765.784          49.900    91862756.200 8  22814060.723
      -785.762          50.500    90694993.834 9  22814061.816        -775.774
        56.100
 139006908.333 6                  26452136.625
      -937.959                          38.600                   103803855.578 6
  26452135.871        -700.422          38.300   106511785.293 6  26452136.668
      -718.694          39.100   105157824.538 7  26452137.457        -709.556
        44.100
 138467636.938 6                  26349510.852
      2402.687                          40.200                   103401148.379 6
  26349512.813        1794.211          39.600   106098564.326 6  26349512.063
      1841.020          41.000   104749863.454 7  26349512.746        1817.615
        46.100
  63064180.719 7                  12000713.344
       824.704                          43.500



 202544714.370 6                  38542978.813
       -88.028                          40.900



 18  4  4  7  5  0.0000000  0 21G13R11R12G09G28R13G02G06G30R03G07R01
                                R02G05R18E07E30E12E19E20S20
 120031488.586 7  93531032.11245  22841229.633                    22841232.859
      2792.373        2175.873          45.000          30.100



 108351712.924 8  84273566.503 7  20276545.094    20276545.203    20276547.703
     -2254.951       -1753.839          49.500          47.300



 103964275.430 7                  19462331.305    19462330.438
      1652.638                          47.200



 120599208.778 7  93973473.397 7  22949281.117                    22949285.680
     -2827.062       -2202.909          47.400          43.000    90057917.521 8
  22949287.352       -2111.119          48.800


 121907816.332 7  94993141.61044  23198288.969                    23198292.672
      3016.458        2350.487          42.000          26.200



 124882112.276 6  97130732.048 5  23386452.688    23386450.707    23386455.469
      4485.479        3488.628          36.200          32.800



 123633506.394 7  96337845.76544  23526691.844                    23526693.781
     -2621.295       -2042.564          42.300          26.700



 133556350.607 4 104069924.948 4  25414942.227
     -3508.065       -2733.557          27.300          28.200    99733678.833 5
  25414951.203       -2619.662          31.900


 106569567.572 8  83041316.706 8  20279530.188                    20279536.410
        79.626          62.041          50.000          50.700    79581260.777 9
  20279536.316          59.461          55.600


 121585510.679 7  94566514.647 6  22713194.563    22713194.027    22713197.117
      3697.543        2875.855          43.800          40.700



 110998442.176 8  86492336.955 7  21122307.523                    21122310.500
     -1590.279       -1239.179          52.600          47.000



 111999154.867 7  87110753.178 6  20951825.102    20951825.199    20951831.043
     -2757.857       -2145.005          44.200          40.200



 103359654.425 8  80390870.460 8  19369555.680    19369554.477    19369558.125
      1283.659         998.390          49.500          49.300



 108790766.624 8  84772032.153 8  20702191.750                    20702195.031
       956.061         744.984          50.700          48.600



 125298712.364 7  97454568.120 6  23472673.344    23472673.910    23472677.684
     -2365.195       -1839.591          42.100          40.100



 128496272.325 8                  24452027.852
     -1640.887                          48.800                    95955019.086 8
  24452031.613       -1225.335          50.500    98458192.396 8  24452031.004
     -1257.303          50.700    97206609.846 9  24452032.168       -1241.318
        56.400
 119919668.398 8                  22819952.859
     -1038.984                          50.200                    89550391.961 8
  22819956.023        -775.864          50.500    91886489.297 8  22819954.992
      -796.107          50.500    90718425.233 9  22819956.098        -785.982
        56.200
 139035251.529 6                  26457529.938
      -951.154                          38.300                   103825020.943 6
  26457530.027        -710.274          37.300   106533502.760 6  26457529.418
      -728.807          38.600   105179265.953 7  26457530.359        -719.541
        43.700
 138395581.433 6                  26335798.570
      2401.016                          40.600                   103347340.690 6
  26335800.590        1792.963          39.300   106043352.982 6  26335799.980
      1839.734          41.500   104695353.937 7  26335801.293        1816.358
        46.200
  63039551.910 7                  11996026.688
       817.411                          43.400



 202547345.182 6                  38543486.750
       -87.647                          40.000



 18  4  4  7  5 30.0000000  0 20G13R11R12G09G28R13G02G30R03G07R01R02
                                G05R18E07E30E12E19E20S20
 119947794.766 7  93465816.15445  22825303.336                    22825306.715
      2787.390        2171.992          45.300          30.400



 108419689.048 8  84326436.807 7  20289267.008    20289266.410    20289268.582
     -2276.051       -1770.253          49.900          47.300



 103915086.426 7                  19453122.227    19453121.125
      1627.475                          46.800



 120684096.040 7  94039619.273 6  22965434.305                    22965438.559
     -2831.892       -2206.676          47.200          41.300    90121307.321 8
  22965440.641       -2114.722          49.000


 121817433.594 7  94922713.53244  23181090.453                    23181092.891
      3009.284        2344.900          42.600          27.100



 124747625.395 5  97026131.141 5  23361267.195    23361265.098    23361269.676
      4480.521        3484.839          34.800          31.900



 123712269.123 7  96399219.28544  23541679.820                    23541681.719
     -2629.225       -2048.740          43.400          28.000



 106567442.385 8  83039660.712 8  20279126.063                    20279131.969
        62.646          48.825          51.200          51.800    79579673.793 9
  20279131.410          46.780          55.600


 121474615.144 7  94480262.560 7  22692478.195    22692477.543    22692481.039
      3695.566        2874.316          43.900          42.100



 111046347.105 8  86529665.469 7  21131423.578                    21131426.523
     -1602.960       -1249.059          52.300          47.600



 112082098.756 7  87175265.075 6  20967343.492    20967342.418    20967347.465
     -2771.253       -2155.457          44.100          39.800



 103321393.854 8  80361112.229 8  19362385.805    19362384.484    19362388.035
      1267.626         985.931          49.300          49.500



 108762358.062 8  84749895.606 8  20696785.633                    20696788.898
       938.434         731.246          50.800          48.900



 125369953.504 7  97509977.853 6  23486020.117    23486019.863    23486023.406
     -2383.594       -1853.892          42.900          40.700



 128545605.777 8                  24461415.813
     -1647.775                          48.300                    95991858.986 8
  24461419.805       -1230.480          50.200    98495993.334 8  24461419.148
     -1262.581          51.500    97243930.266 9  24461420.152       -1246.531
        56.400
 119951047.819 8                  22825924.313
     -1052.509                          51.100                    89573824.638 8
  22825927.492        -785.963          50.600    91910533.264 8  22825926.320
      -806.470          49.800    90742163.555 9  22825927.457        -796.213
        56.200
 139063991.759 6                  26462998.719
      -964.386                          37.100                   103846482.758 6
  26462999.109        -720.160          37.700   106555524.469 6  26462999.203
      -738.941          40.100   105201007.717 7  26462999.797        -729.547
        44.200
 138323577.445 6                  26322097.523
      2399.313                          40.100                   103293571.498 6
  26322098.105        1791.699          40.200   105988181.132 6  26322099.090
      1838.434          41.900   104640883.415 7  26322099.457        1815.066
        46.800
  63015143.609 7                  11991382.031
       810.008                          43.900



 202549974.728 6                  38543981.953
       -87.546                          39.100



 18  4  4  7  6  0.0000000  0 20G13R11R12G09G28R13G02G30R03G07R01R02
                                G05R18E07E30E12E19E20S20
 119864249.483 7  93400715.95545  22809404.883                    22809409.000
      2782.428        2168.125          44.800          30.400



 108488294.933 8  84379796.919 7  20302104.836    20302104.945    20302107.473
     -2296.967       -1786.543          48.800          47.600



 103866651.438 7                  19444055.188    19444054.086
      1602.335                          46.900



 120769126.861 7  94105876.984 6  22981615.195                    22981620.074
     -2836.678       -2210.399          46.400          41.700    90184804.286 8
  22981621.332       -2118.298          48.700


 121727265.805 6  94852452.96544  23163930.984                    23163935.020
      3002.088        2339.290          41.700          25.600



 124613285.584 5  96921644.614 5  23336108.516    23336106.066    23336112.281
      4475.540        3481.013          33.100          30.400



 123791267.461 7  96460776.39944  23556712.867                    23556715.008
     -2637.050       -2054.841          43.000          27.500



 106565825.472 8  83038400.792 8  20278818.195                    20278824.613
        45.694          35.612          51.800          51.600    79578466.361 9
  20278823.875          34.120          55.500


 121363777.650 7  94394055.611 7  22671772.844    22671771.957    22671775.813
      3693.589        2872.793          43.000          42.900



 111094630.396 8  86567288.812 7  21140611.680                    21140614.758
     -1615.524       -1258.858          52.700          47.600



 112165443.233 7  87240088.503 6  20982932.945    20982932.691    20982938.285
     -2784.637       -2165.817          44.200          40.600



 103283613.512 8  80331727.504 8  19355305.789    19355304.586    19355308.199
      1251.523         973.428          50.000          49.300



 108734478.160 8  84728171.004 8  20691480.695                    20691483.305
       920.780         717.489          51.200          49.400



 125441744.192 7  97565815.070 6  23499469.859    23499468.902    23499472.629
     -2401.862       -1868.107          42.600          41.200



 128595144.664 8                  24470842.492
     -1654.624                          48.700                    96028852.291 8
  24470846.602       -1235.592          50.500    98533951.683 8  24470846.133
     -1267.824          50.800    97281406.092 9  24470846.934       -1251.709
        56.400
 119982830.974 8                  22831972.430
     -1065.945                          50.800                    89597558.812 8
  22831975.438        -795.999          50.600    91934886.595 8  22831974.688
      -816.767          50.400    90766207.308 9  22831975.734        -806.384
        56.200
 139093126.943 6                  26468543.195
      -977.547                          36.900                   103868239.556 6
  26468543.652        -729.990          38.200   106577848.830 6  26468542.195
      -749.030          38.800   105223048.300 7  26468544.043        -739.510
        44.200
 138251624.857 6                  26308405.313
      2397.585                          41.000                   103239840.704 6
  26308406.570        1790.405          41.300   105933048.647 6  26308406.242
      1837.109          41.500   104586451.776 7  26308407.121        1813.757
        47.000
  62990955.575 7                  11986779.211
       802.655                          43.500



 202552604.668 6                  38544482.031
       -87.626                          39.000



 18  4  4  7  6 30.0000000  0 20G13R11R12G09G28R13G02G30R03G07R01R02
                                G05R18E07E30E12E19E20S20
 119780853.470 7  93335732.07444  22793536.188                    22793538.605
      2777.470        2164.259          46.400          29.600



 108557527.499 8  84433644.439 8  20315060.820    20315060.578    20315063.453
     -2317.817       -1802.735          49.100          48.000



 103818971.869 7                  19435130.063    19435128.375
      1577.127                          47.300



 120854301.010 7  94172246.442 7  22997822.570                    22997829.656
     -2841.435       -2214.089          46.400          43.600    90248408.330 8
  22997830.328       -2121.847          48.900


 121637315.977 6  94782362.19344  23146813.516                    23146818.164
      2994.784        2333.603          41.000          24.400



 124479096.243 5  96817275.137 5  23310977.836    23310977.500    23310982.629
      4470.559        3477.067          33.000          30.500



 123870498.671 7  96522514.96744  23571790.148                    23571792.211
     -2644.766       -2060.849          42.800          26.200



 106564716.643 8  83037536.768 8  20278607.500                    20278613.699
        28.792          22.436          50.500          51.800    79577638.332 9
  20278613.020          21.503          55.900


 121253001.168 7  94307896.128 7  22651080.586    22651079.465    22651081.973
      3691.532        2871.212          43.700          43.100



 111143290.973 8  86605206.126 7  21149871.109                    21149874.484
     -1628.081       -1268.635          52.600          46.600



 112249187.984 7  87305223.276 6  20998599.836    20998598.879    20998604.805
     -2797.924       -2176.161          43.800          40.900



 103246315.884 8  80302718.258 8  19348316.328    19348314.656    19348318.285
      1235.485         960.929          48.900          48.300



 108707128.648 8  84706859.688 8  20686275.430                    20686278.965
       903.111         703.726          49.100          48.900



 125514081.108 6  97622077.079 6  23513020.414    23513019.574    23513024.082
     -2419.970       -1882.191          40.700          40.800



 128644889.372 8                  24480308.898
     -1661.452                          48.700                    96065999.288 8
  24480312.914       -1240.691          50.500    98572067.737 8  24480312.258
     -1273.057          51.200    97319037.617 9  24480313.070       -1256.875
        56.500
 120015017.114 8                  22838097.055
     -1079.345                          50.300                    89621593.920 8
  22838100.000        -806.008          50.100    91959548.706 8  22838098.922
      -827.025          50.200    90790555.916 9  22838100.348        -816.513
        56.200
 139122656.492 6                  26474163.000
      -990.649                          37.100                   103890290.835 6
  26474163.488        -739.761          38.700   106600475.367 6  26474161.609
      -759.063          38.600   105245387.211 7  26474163.418        -749.415
        43.900
 138179724.761 6                  26294723.055
      2395.834                          41.500                   103186149.078 6
  26294724.742        1789.094          41.200   105877956.370 6  26294723.617
      1835.772          40.900   104532059.829 7  26294725.133        1812.436
        47.000
  62966988.988 7                  11982218.313
       795.290                          43.700



 202555232.134 6                  38544984.250
       -87.932                          39.900



 18  4  4  7  7  0.0000000  0 20G13R11R12G09G28R13G02G30R03G07R01R02
                                G05R18E07E30E12E19E20S20
 119697607.427 7  93270865.02944  22777694.852                    22777698.090
      2772.437        2160.341          45.500          29.900



 108627383.273 8  84487976.715 8  20328133.445    20328133.789    20328136.340
     -2338.565       -1818.885          49.000          48.000



 103772048.743 7                  19426346.281    19426344.945
      1551.880                          47.600



 120939617.744 7  94238727.005 7  23014057.875                    23014064.000
     -2846.217       -2217.820          45.800          43.000    90312118.850 8
  23014065.316       -2125.415          48.800


 121547586.907 6  94712443.48743  23129738.320                    23129741.371
      2987.386        2327.815          39.400          22.300



 124345060.265 5  96713025.054 5  23285877.367    23285875.977    23285881.852
      4465.407        3473.034          33.100          30.100



 123949959.874 7  96584432.76544  23586910.922                    23586913.488
     -2652.390       -2066.785          42.200          27.900



 106564115.194 8  83037068.101 8  20278492.719                    20278498.844
        11.874           9.251          51.300          51.700    79577189.194 9
  20278498.633           8.867          55.600


 121142287.173 7  94221785.320 7  22630396.125    22630395.707    22630399.621
      3689.440        2869.571          42.400          43.900



 111192326.913 8  86643415.934 7  21159202.359                    21159205.598
     -1640.581       -1278.372          52.800          47.200



 112333331.390 7  87370668.104 6  21014340.680    21014340.074    21014345.520
     -2811.200       -2186.486          44.500          40.400



 103209503.156 8  80274086.125 8  19341417.352    19341416.383    19341419.789
      1219.221         948.277          50.100          49.100



 108680310.552 8  84685962.466 8  20681172.500                    20681175.801
       885.343         689.877          50.800          48.700



 125586960.381 7  97678760.924 6  23526673.883    23526672.453    23526677.156
     -2437.995       -1896.225          42.200          41.100



 128694839.752 8                  24489813.742
     -1668.338                          48.800                    96103299.873 8
  24489818.426       -1245.839          50.500    98610341.387 8  24489817.391
     -1278.338          51.000    97356824.733 9  24489818.402       -1262.087
        56.500
 120047605.039 8                  22844298.422
     -1092.739                          50.600                    89645929.064 8
  22844301.227        -816.005          50.600    91984518.683 8  22844300.148
      -837.290          50.100    90815208.478 9  22844301.711        -826.644
        56.300
 139152579.237 6                  26479857.070
     -1003.760                          38.000                   103912635.738 6
  26479856.492        -749.557          37.400   106623403.188 6  26479856.445
      -769.110          38.200   105268023.567 7  26479857.500        -759.338
        43.400
 138107877.836 7                  26281051.398
      2394.012                          42.200                   103132497.160 6
  26281052.563        1787.733          41.600   105822904.837 6  26281051.625
      1834.377          41.500   104477708.106 7  26281053.109        1811.055
        47.000
  62943244.743 7                  11977699.930
       787.870                          43.100



 202557855.393 6                  38545484.156
       -87.622                          39.500



 18  4  4  7  7 30.0000000  0 20G13R11R12G09G28R13G02G30R03G07R01R02
                                G05R18E07E30E12E19E20S20
 119614512.112 7  93206115.44344  22761881.727                    22761884.945
      2767.403        2156.421          45.600          29.800



 108697859.276 8  84542791.385 7  20341321.844    20341321.602    20341324.863
     -2359.149       -1834.892          49.000          47.800



 103725884.592 7                  19417703.914    19417702.930
      1526.609                          47.000



 121025076.805 7  94305318.415 6  23030320.039                    23030325.234
     -2850.925       -2221.501          46.600          41.600    90375935.628 7
  23030325.848       -2128.929          47.000


 121458082.022 6  94642699.41743  23112706.656                    23112710.945
      2979.861        2321.969          40.900          22.600



 124211181.163 5  96608896.856 5  23260806.867    23260805.945    23260810.414
      4460.096        3468.963          35.200          32.400



