     2.11           OBSERVATION DATA    M (MIXED)           RINEX VERSION / TYPE
teqc  2016Nov7                          20180405 05:03:57UTCPGM / RUN BY / DATE
Linux 2.4.21-27.ELsmp|Opteron|gcc|Linux x86_64|=+           COMMENT
teqc  2016Nov7                          20180405 05:03:57UTCCOMMENT
teqc  2016Nov7      IGN-RGP             20180404 08:14:30UTCCOMMENT
teqc  2016Nov7                          20180404 08:14:30UTCCOMMENT
teqc  2016Nov7      IGN-RGP             20180404 08:14:28UTCCOMMENT
teqc  2016Nov7      IGN-RGP             20180404 08:14:27UTCCOMMENT
BIT 2 OF LLI FLAGS DATA COLLECTED UNDER A/S CONDITION       COMMENT
PERX                                                        MARKER NAME
19678M001                                                   MARKER NUMBER
Automatic           OSU THETA                               OBSERVER / AGENCY
5244K53083          TRIMBLE NETR9       4.85                REC # / TYPE / VERS
5000115439          TRM57971.00     TZGD                    ANT # / TYPE
  4334045.8650   490447.9600  4639564.7290                  APPROX POSITION XYZ
        0.0000        0.0000        0.0000                  ANTENNA: DELTA H/E/N
     1     1                                                WAVELENGTH FACT L1/2
    21    L1    L2    C1    P1    P2    D1    D2    S1    S2# / TYPES OF OBSERV
          L5    C5    D5    S5    L7    C7    D7    S7    L8# / TYPES OF OBSERV
          C8    D8    S8                                    # / TYPES OF OBSERV
    30.0000                                                 INTERVAL
    18                                                      LEAP SECONDS
 SNR is mapped to RINEX snr flag value [0-9]                COMMENT
  L1 & L2: min(max(int(snr_dBHz/6), 0), 9)                  COMMENT
Forced Modulo Decimation to 30 seconds                      COMMENT
  2018     4     4     7     0    0.0000000     GPS         TIME OF FIRST OBS
                                                            END OF HEADER
 18  4  4  7  0  0.0000000  0 22R10G13R11G09G02R12G28R19R03G30G07R01
                                R02G05R18E19E07E12E30E02E20S20
 129061635.810 6 100381227.568 4  24211616.438    24211615.535    24211622.516
                                        40.800          29.900



 120902581.661 7  94209817.18544  23006995.977                    23006999.359
                                        44.300          28.400



 107639318.476 8  83719478.744 7  20143230.805    20143229.621    20143232.867
                                        49.700          47.100



 119718627.435 7  93287390.859 7  22781730.273                    22781735.797
                                        46.100          43.600    89400423.184 7
  22781736.000                          47.600


 122961081.350 7  95813832.77144  23398721.609                    23398723.051
                                        43.600          28.700



 104547381.804 7                  19571490.828    19571489.258
                                        47.100



 122901185.989 6  95767272.45944  23387338.578                    23387342.926
                                        41.400          24.400



 126328265.137 6  98255336.564 6  23615736.234    23615736.813    23615739.910
                                        37.700          40.200



 122648201.946 6  95393056.769 6  22911714.102    22911713.098    22911718.031
                                        39.400          41.600



 106631311.809 8  83089378.478 8  20291266.219                    20291272.293
                                        51.300          51.700    79627324.279 9
  20291272.375                          56.200


 110492804.747 8  86098317.446 7  21026084.852                    21026088.277
                                        50.900          47.800



 111203250.006 7  86491442.970 6  20802870.000    20802869.277    20802875.895
                                        45.000          41.200



 103730233.680 8  80679099.569 8  19439001.766    19439000.797    19439004.691
                                        49.200          48.200



 109104395.455 8  85016446.395 8  20761880.141                    20761883.738
                                        50.000          48.100



 124595324.931 6  96907501.814 6  23340908.867    23340907.555    23340911.992
                                        40.600          41.500



 139101370.740 6                  26470110.414
                                        40.700                   103874406.314 6
  26470112.516                          40.800   106584163.138 6  26470109.891
                        39.600   105229292.332 7  26470112.395
        45.300
 128014308.291 8                  24360312.039
                                        48.800                    95595111.187 8
  24360316.605                          51.100    98088891.452 8  24360314.215
                        50.600    96842006.431 9  24360316.137
        56.800
 138732295.633 6                  26399880.930
                                        39.900                   103598790.494 6
  26399882.559                          41.100   106301362.717 5  26399878.195
                        34.600   104950079.716 7  26399881.398
        44.600
 119569480.974 8                  22753315.023
                                        52.100                    89288913.464 8
  22753318.359                          50.600    91618178.957 8  22753316.297
                        50.300    90453549.821 9  22753317.512
        56.600
 148361288.957 7                  28232219.289
                                        45.800                   110789306.344 7
  28232222.973                          44.000   113679449.823 5  28232216.969
                        32.400   112234377.702 7  28232222.457
        46.200
  63282081.165 7                  12042178.438
                                        44.100



 202632777.620 6                  38559728.313
                                        39.200



 18  4  4  7  0 30.0000000  0 22R10G13R11G09G02R12G28R19R03G30G07R01
                                R02G05R18E19E07E12E30E02E20S20
 129191760.926 5 100482435.874 5  24236027.172    24236025.098    24236033.684
     -4338.995       -3374.820          34.800          32.300



 120817111.588 7  94143217.15044  22990731.813                    22990735.000
      2846.751        2218.235          45.600          29.400



 107700271.188 8  83766886.418 7  20154636.609    20154635.660    20154638.969
     -2042.484       -1588.596          49.100          47.000



 119802243.607 7  93352546.302 7  22797641.820                    22797647.539
     -2789.637       -2173.747          46.500          44.200    89462863.798 8
  22797648.625       -2083.169          48.600


 123037635.073 7  95873484.97944  23413289.211                    23413290.477
     -2556.042       -1991.725          43.200          26.800



 104490113.509 7                  19560769.352    19560768.133
      1897.089                          47.200



 122808529.981 6  95695073.03244  23369706.211                    23369710.715
      3085.595        2404.360          41.800          25.500



 126299360.523 6  98232855.149 6  23610332.102    23610332.328    23610336.227
       951.410         739.974          38.000          41.200



 122536656.173 6  95306298.990 6  22890876.180    22890875.645    22890880.242
      3717.573        2891.430          39.600          40.400



 106623520.290 8  83083307.166 8  20289784.000                    20289789.469
       251.428         195.921          50.700          50.500    79621505.938 9
  20289790.141         187.754          56.200


 110536397.855 8  86132286.070 7  21034380.242                    21034383.199
     -1459.507       -1137.277          50.000          47.600



 111282586.074 7  86553148.746 6  20817711.781    20817710.473    20817716.914
     -2651.180       -2062.000          45.000          41.600



 103687508.285 8  80645868.697 8  19430995.008    19430993.805    19430998.223
      1416.796        1101.957          48.800          48.000



 109071147.798 8  84990539.132 7  20755553.266                    20755556.984
      1099.931         857.086          49.400          47.600



 124661347.773 6  96958852.904 6  23353275.695    23353275.324    23353280.168
     -2210.214       -1719.067          40.600          39.900



 139028734.240 6                  26456288.188
      2420.531                          40.500                   103820164.796 6
  26456291.445        1807.542          40.800   106528506.619 6  26456287.133
      1854.700          38.700   105174343.321 7  26456290.102        1831.117
        45.700
 128061841.104 8                  24369357.125
     -1587.758                          48.300                    95630606.445 8
  24369361.859       -1185.663          50.900    98125312.670 8  24369359.516
     -1216.593          50.400    96877964.667 9  24369361.367       -1201.131
        56.800
 138757367.562 6                  26404651.938
      -842.287                          39.100                   103617513.009 6
  26404652.527        -628.984          40.200   106320573.661 6  26404649.527
      -645.386          37.000   104969046.444 7  26404652.570        -637.185
        44.400
 119596392.717 8                  22758435.867
      -903.757                          51.100                    89309009.896 8
  22758440.262        -674.883          51.300    91638799.647 8  22758436.934
      -692.490          50.500    90473908.379 9  22758438.719        -683.688
        56.700
 148447158.954 6                  28248556.820
     -2864.615                          36.500                   110853429.962 7
  28248563.266       -2139.148          44.400   113745246.244 6  28248560.219
     -2194.955          41.700   112299337.713 8  28248563.055       -2167.053
        49.000
  63255566.975 7                  12037133.039
       880.402                          43.100



 202635434.013 6                  38560233.141
       -88.523                          40.600



 18  4  4  7  1  0.0000000  0 22R10G13R11G09G02R12G28R19R03G30G07R01
                                R02G05R18E19E07E12E30E02E20S20
 129321983.057 6 100583719.519 5  24260457.359    24260454.699    24260462.809
     -4342.261       -3377.284          37.900          31.400



 120731782.971 7  94076727.32245  22974494.367                    22974497.492
      2842.043        2214.579          46.600          30.200



 107761888.952 8  83814811.353 8  20166168.531    20166168.289    20166172.012
     -2064.589       -1605.807          50.600          49.200



 119886012.047 7  93417820.355 7  22813582.766                    22813588.824
     -2794.693       -2177.680          47.000          43.900    89525418.111 7
  22813589.031       -2086.947          47.700


 123114451.387 6  95933341.81344  23427906.672                    23427908.914
     -2564.709       -1998.483          39.900          26.900



 104433582.029 7                  19550187.469    19550185.664
      1872.532                          47.200



 122716058.418 7  95623017.28143  23352110.516                    23352113.844
      3079.445        2399.558          43.100          23.900



 126271206.634 6  98210957.719 6  23605070.930    23605069.980    23605073.695
       926.394         720.509          38.100          40.200



 122425151.314 6  95219572.963 6  22870048.266    22870045.855    22870050.094
      3716.185        2890.385          40.900          40.400



 106616243.125 8  83077636.656 8  20288399.258                    20288404.563
       234.302         182.575          52.500          50.700    79616071.697 9
  20288405.176         174.966          56.100


 110580388.423 8  86166564.434 7  21042751.328                    21042754.945
     -1472.706       -1147.562          52.000          47.100



 111362333.400 7  86615174.441 6  20832630.172    20832629.332    20832635.574
     -2664.830       -2072.662          45.300          41.000



 103645244.411 8  80612996.781 8  19423074.953    19423074.102    19423078.156
      1401.427        1090.021          49.600          48.000



 109038416.834 8  84965034.481 8  20749324.789                    20749328.012
      1082.738         843.687          50.800          48.400



 124727956.690 6  97010659.795 6  23365753.727    23365753.824    23365757.902
     -2229.695       -1734.186          40.800          39.300



 138956143.950 6                  26442474.500
      2418.947                          41.000                   103765957.773 6
  26442476.621        1806.355          41.000   106472885.498 6  26442474.137
      1853.480          39.200   105119429.245 7  26442476.637        1829.918
        45.500
 128109581.182 8                  24378441.625
     -1594.632                          48.700                    95666256.482 8
  24378446.813       -1190.798          51.200    98161892.711 8  24378444.000
     -1221.858          50.000    96914079.706 9  24378446.027       -1206.328
        56.800
 138782845.188 6                  26409500.078
      -855.750                          38.700                   103636538.480 6
  26409500.688        -639.033          40.200   106340095.469 6  26409500.219
      -655.700          38.400   104988320.080 7  26409500.977        -647.365
        44.700
 119623720.131 8                  22763635.828
      -917.583                          49.800                    89329416.720 8
  22763640.293        -685.207          51.500    91659738.841 8  22763636.777
      -703.085          49.200    90494581.388 9  22763639.070        -694.144
        56.600
 148533168.243 7                  28264926.703
     -2869.146                          45.700                   110917657.523 7
  28264930.621       -2142.549          45.200   113811149.289 6  28264926.445
     -2198.442          40.200   112364403.016 8  28264929.723       -2170.492
        48.900
  63229267.721 7                  12032128.445
       873.224                          44.000



 202638088.873 6                  38560738.219
       -88.266                          39.800



 18  4  4  7  1 30.0000000  0 22R10G13R11G09G02R12G28R19R03G30G07R01
                                R02G05R18E19E07E12E30E02E20S20
 129452298.155 6 100685075.608 4  24284903.508    24284902.961    24284910.141
     -4345.321       -3379.665          36.300          26.800



 120646596.523 7  94010348.30044  22958284.406                    22958287.078
      2837.263        2210.856          47.300          29.300



 107824168.560 8  83863251.022 8  20177822.805    20177822.563    20177826.957
     -2086.584       -1622.880          50.100          49.100



 119969931.877 7  93483212.412 7  22829552.047                    22829557.445
     -2799.743       -2181.618          47.000          43.200    89588085.498 8
  22829558.531       -2090.717          48.300


 123191527.281 6  95993400.91744  23442573.891                    23442576.176
     -2573.312       -2005.177          40.700          27.900



 104377789.187 7                  19539743.000    19539741.313
      1847.849                          47.500



 122623774.577 7  95551107.82843  23334548.266                    23334552.563
      3073.074        2394.602          42.500          23.500



 126243804.796 6  98189645.183 6  23599948.422    23599947.004    23599951.164
       901.273         701.014          38.900          39.800



 122313688.956 7  95132880.025 6  22849224.422    22849224.125    22849228.348
      3714.706        2889.236          42.600          40.300



 106609479.773 8  83072366.505 8  20287112.055                    20287117.797
       217.187         169.236          53.100          51.800    79611021.139 9
  20287118.289         162.186          56.100


 110624774.720 8  86201151.142 7  21051198.156                    21051201.297
     -1485.872       -1157.824          52.300          47.600



 111442490.880 7  86677519.112 6  20847625.766    20847624.340    20847630.406
     -2678.487       -2083.266          44.300          40.700



 103603443.966 8  80580485.327 8  19415241.320    19415240.469    19415244.172
      1385.870        1077.892          49.500          48.100



 109006203.670 8  84939933.310 8  20743194.727                    20743198.355
      1065.428         830.200          51.300          48.400



 124795148.033 6  97062919.680 6  23378340.797    23378339.957    23378346.082
     -2249.043       -1749.240          37.600          41.400



 138883600.285 6                  26428669.828
      2417.396                          40.700                   103711785.577 6
  26428672.117        1805.196          41.100   106417300.107 6  26428669.398
      1852.287          39.100   105064550.451 7  26428671.914        1828.738
        45.500
 128157528.416 8                  24387565.859
     -1601.566                          48.900                    95702061.204 8
  24387570.699       -1195.979          50.900    98198631.470 8  24387568.074
     -1227.173          49.600    96950351.447 9  24387570.152       -1211.576
        56.800
 138808727.446 6                  26414425.273
      -869.266                          38.700                   103655866.142 6
  26414426.707        -649.131          40.400   106359927.304 6  26414423.238
      -666.063          38.200   105007899.833 7  26414425.992        -657.597
        44.900
 119651462.105 8                  22768914.492
      -931.394                          50.100                    89350133.090 8
  22768919.305        -695.519          51.700    91680995.661 8  22768915.602
      -713.664          49.100    90515567.988 9  22768918.387        -704.594
        56.600
 148619314.488 7                  28281319.008
     -2873.708                          44.700                   110981987.456 7
  28281324.324       -2145.944          46.900   113877157.460 7  28281321.465
     -2201.932          44.100   112429572.065 8  28281323.602       -2173.937
        51.100
  63203184.148 7                  12027165.281
       866.018                          43.600



 202640742.252 6                  38561242.578
       -88.468                          39.900



 18  4  4  7  2  0.0000000  0 22R10G13R11G09G02R12G28R19R03G30G07R01
                                R02G05R18E19E07E12E30E02E20S20
 129582703.491 5                  24309366.906    24309365.066
     -4348.292                          34.900



 120561552.882 7  93944080.53144  22942100.359                    22942104.109
      2832.437        2207.096          46.400          28.500



 107887106.554 8  83912202.756 7  20189599.867    20189598.918    20189602.777
     -2108.510       -1639.950          48.400          46.700



 120054002.270 7  93548721.748 7  22845549.234                    22845555.617
     -2804.772       -2185.539          47.800          43.100    89650865.284 7
  22845556.938       -2094.475          47.900


 123268859.838 6  96053659.98244  23457289.375                    23457292.863
     -2581.887       -2011.861          41.700          26.700



 104322736.226 7                  19529435.695    19529434.828
      1823.149                          47.500



 122531681.317 6  95479346.90444  23317024.031                    23317028.102
      3066.620        2389.575          41.200          25.800



 126217155.963 6  98168918.288 6  23594966.500    23594964.613    23594968.648
       876.105         681.414          37.700          38.800



 122202270.934 7  95046221.621 6  22828410.102    22828408.980    22828413.555
      3713.186        2888.036          43.200          39.900



 106603229.601 8  83067496.242 8  20285922.648                    20285928.602
       200.040         155.870          52.700          51.500    79606353.803 9
  20285929.156         149.383          56.100


 110669554.765 8  86236044.711 7  21059718.836                    21059722.320
     -1499.020       -1168.068          52.700          47.500



 111523057.578 7  86740182.067 6  20862696.586    20862696.098    20862702.285
     -2692.172       -2093.915          45.200          41.200



 103562109.217 8  80548336.089 8  19407495.305    19407494.336    19407498.277
      1370.257        1065.752          49.800          48.200



 108974509.973 8  84915236.917 8  20737164.055                    20737167.098
      1048.051         816.661          51.600          48.100



 124862918.097 7  97115629.653 6  23391037.352    23391037.215    23391041.801
     -2268.302       -1764.224          42.500          39.200



 138811103.821 6                  26414874.102
      2415.737                          41.200                   103657648.625 6
  26414876.582        1803.963          40.900   106361750.868 6  26414873.441
      1851.019          39.500   105009707.356 7  26414876.063        1827.492
        45.400
 128205682.490 8                  24396729.422
     -1608.506                          49.800                    95738020.389 8
  24396734.324       -1201.158          51.100    98235528.730 8  24396731.559
     -1232.491          50.200    96986779.667 9  24396733.598       -1216.823
        56.800
 138835013.119 6                  26419427.547
      -882.686                          39.400                   103675495.043 6
  26419429.586        -659.146          41.100   106380068.262 6  26419426.066
      -676.348          38.000   105027784.760 7  26419427.938        -667.748
        45.100
 119679617.393 8                  22774273.078
      -945.199                          50.500                    89371158.125 8
  22774277.043        -705.830          51.200    91702569.193 8  22774273.527
      -724.241          49.300    90536867.272 9  22774276.391        -715.035
        56.400
 148705596.153 7                  28297738.047
     -2878.235                          44.900                   111046418.428 6
  28297741.793       -2149.339          41.000   113943269.192 7  28297739.965
     -2205.396          42.800   112494843.417 7  28297741.918       -2177.363
        47.100
  63177316.836 7                  12022242.648
       858.736                          44.100



 202643394.478 6                  38561755.578
       -88.174                          39.900



 18  4  4  7  2 30.0000000  0 23R10G13R11G09G02R12R13G28R19R03G30G07
                                R01R02G05R18E19E07E12E30E02E20S20
 129713195.372 6                  24333847.594    24333846.105
     -4351.059                          38.300



 120476652.964 7  93877924.77644  22925944.641                    22925947.211
      2827.704        2203.402          46.000          28.700



 107950699.741 8  83961664.173 7  20201501.859    20201501.500    20201503.766
     -2130.292       -1656.895          50.500          47.300



 120138222.682 7  93614348.041 7  22861576.211                    22861582.340
     -2809.752       -2189.416          46.600          43.600    89713757.126 8
  22861583.250       -2098.192          48.100


 123346446.552 6  96114117.11344  23472054.258                    23472056.859
     -2590.281       -2018.384          41.100          26.400



 104268425.198 7                  19519269.727    19519267.566
      1798.427                          47.300



 125687984.49115  97757346.855 5  23537323.813    23537321.363    23537328.492
      4511.460        3508.941          30.300          31.100



 122439780.964 6  95407736.27443  23299536.125                    23299539.719
      3060.167        2384.540          41.400          23.600



 126191261.507 6  98148778.150 6  23590127.656    23590126.121    23590127.816
       851.016         661.880          39.400          39.600



 122090899.467 7  94959599.323 6  22807605.547    22807604.660    22807609.117
      3711.648        2886.843          43.500          41.000



 106597492.295 8  83063025.624 8  20284831.102                    20284836.957
       182.985         142.585          52.700          51.100    79602069.454 9
  20284837.332         136.649          56.100


 110714727.148 8  86271243.957 7  21068315.422                    21068319.262
     -1512.052       -1178.223          51.900          47.900



 111604032.236 7  86803162.310 6  20877844.820    20877843.629    20877850.133
     -2705.707       -2104.429          44.500          41.300



 103521242.595 8  80516550.916 8  19399837.289    19399835.852    19399839.602
      1354.678        1053.643          49.500          48.000



 108943337.469 8  84890946.641 8  20731232.141                    20731235.426
      1030.711         803.154          51.300          48.400



 124931263.129 6  97168786.946 6  23403840.297    23403839.102    23403844.398
     -2287.370       -1779.066          39.700          37.300



 138738655.393 6                  26401087.766
      2414.151                          41.100                   103603547.533 6
  26401090.082        1802.777          40.800   106306238.455 6  26401087.223
      1849.802          39.100   104954900.599 7  26401089.621        1826.294
        45.300
 128254043.534 8                  24405932.008
     -1615.354                          48.300                    95774134.129 8
  24405936.699       -1206.266          51.000    98272584.571 8  24405934.398
     -1237.741          50.100    97023364.458 9  24405936.328       -1221.999
        56.700
 138861701.402 6                  26424505.664
      -896.080                          37.600                   103695424.584 6
  26424506.000        -669.154          39.700   106400517.712 6  26424504.730
      -686.607          38.700   105047974.254 7  26424506.387        -677.878
        45.000
 119708185.059 8                  22779709.516
      -958.889                          51.600                    89392491.125 8
  22779712.797        -716.053          50.500    91724458.709 8  22779710.219
      -734.734          49.600    90558478.530 9  22779712.754        -725.394
        56.100
 148792011.318 7                  28314182.492
     -2882.615                          45.600                   111110949.354 7
  28314186.867       -2152.600          45.100   114009483.523 6  28314181.477
     -2208.766          36.100   112560216.053 7  28314186.043       -2180.686
        47.400
  63151666.706 7                  12017361.570
       851.544                          43.700



 202646046.121 6                  38562258.594
       -88.460                          39.700



 18  4  4  7  3  0.0000000  0 23R10G13R11G09G02R12R13G28R19R03G30G07
                                R01R02G05R18E19E07E12E30E02E20S20
 129843770.784 6                  24358343.758    24358342.387
     -4353.829                          39.200



 120391897.274 7  93811881.39044  22909815.930                    22909820.008
      2822.871        2199.642          44.900          27.900



 108014945.382 8  84011633.008 8  20213524.289    20213523.691    20213527.711
     -2152.010       -1673.767          49.500          49.200



 120222592.770 7  93680090.920 7  22877631.336                    22877637.156
     -2814.746       -2193.310          47.000          43.100    89776760.714 7
  22877638.531       -2101.923          47.900


 123424284.707 6  96174770.22244  23486866.469                    23486868.012
     -2598.660       -2024.942          40.600          26.000



 104214857.787 7                  19509241.383    19509240.281
      1773.595                          47.100



 125552703.743 5  97652128.431 5  23511991.375    23511987.051    23511994.590
      4507.259        3505.726          31.000          31.800



 122348077.373 6  95336278.96344  23282085.117                    23282089.742
      3053.565        2379.410          39.400          24.700



 126166122.790 6  98129225.873 6  23585426.750    23585425.332    23585429.152
       825.759         642.254          37.800          40.200



 121979577.041 7  94873015.212 6  22786810.492    22786809.605    22786813.008
      3709.939        2885.502          44.100          41.900



 106592267.680 8  83058954.504 8  20283836.805                    20283842.371
       165.913         129.282          52.900          51.200    79598167.961 9
  20283842.922         123.902          56.200


 110760290.745 8  86306748.034 7  21076986.164                    21076989.316
     -1525.083       -1188.376          52.400          47.300



 111685414.599 7  86866459.683 6  20893069.141    20893067.715    20893074.422
     -2719.290       -2115.006          44.500          40.700



 103480846.587 8  80485131.793 8  19392266.695    19392265.961    19392269.527
      1338.920        1041.389          49.400          48.600



 108912687.553 8  84867063.584 8  20725399.734                    20725403.148
      1013.217         789.523          51.500          48.400



 125000179.885 7  97222388.787 6  23416751.672    23416750.715    23416756.004
     -2306.424       -1793.869          42.700          40.600



 138666256.023 6                  26387310.516
      2412.511                          41.400                   103549483.063 6
  26387313.250        1801.550          40.500   106250763.608 6  26387309.875
      1848.545          38.900   104900130.948 7  26387312.703        1825.044
        45.100
 128302611.860 8                  24415174.680
     -1622.280                          49.000                    95810402.656 8
  24415179.184       -1211.439          51.000    98309799.237 8  24415176.652
     -1243.043          49.900    97060106.056 9  24415178.629       -1227.242
        56.700
 138888791.706 6                  26429660.727
      -909.509                          37.200                   103715654.328 6
  26429662.648        -679.174          40.200   106421275.205 6  26429660.820
      -696.899          39.300   105068467.876 7  26429661.789        -688.037
        45.600
 119737164.459 8                  22785224.219
      -972.607                          51.300                    89414131.608 8
  22785226.742        -726.296          50.500    91746663.710 8  22785225.383
      -745.246          50.200    90580401.266 9  22785227.031        -735.772
        55.900
 148878558.965 7                  28330651.805
     -2887.040                          42.300                   111175578.851 8
  28330657.133       -2155.892          48.900   114075799.095 7  28330654.598
     -2212.132          45.700   112625688.583 8  28330656.414       -2184.016
        52.900
  63126234.780 7                  12012521.813
       844.227                          43.600



 202648694.293 6                  38562756.906
       -88.051                          41.100



 18  4  4  7  3 30.0000000  0 23R10G13R11G09G02R12R13G28R19R03G30G07
                                R01R02G05R18E19E07E12E30E02E20S20
 129974426.299 6                  24382853.992    24382852.621
     -4356.433                          39.200



 120307286.804 7  93745951.16944  22893715.000                    22893718.344
      2817.970        2195.820          45.100          28.000



 108079840.166 8  84062106.649 8  20225667.828    20225667.352    20225672.211
     -2173.577       -1690.564          48.800          48.900



 120307111.692 7  93745949.781 7  22893714.773                    22893721.496
     -2819.709       -2197.174          45.600          42.800    89839875.445 8
  22893722.523       -2105.626          49.100


 123502371.301 6  96235616.89644  23501725.648                    23501727.137
     -2606.869       -2031.324          40.400          26.900



 104162035.563 7                  19499352.922    19499351.703
      1748.703                          47.600



 125417552.292 5  97547010.759 5  23486679.305    23486676.855    23486685.129
      4502.970        3502.314          30.100          31.600



 122256573.267 6  95264977.10543  23264672.984                    23264676.672
      3046.849        2374.177          40.900          23.200



 126141740.615 6  98110262.014 6  23580868.781    23580867.246    23580871.207
       800.551         622.632          38.300          39.100



 121868305.249 7  94786470.471 6  22766023.859    22766023.797    22766025.813
      3708.223        2884.190          43.200          40.900



 106587555.216 8  83055282.445 8  20282939.703                    20282945.801
       148.827         115.973          52.100          51.300    79594648.912 9
  20282946.121         111.139          56.100


 110806243.611 8  86342555.469 7  21085730.359                    21085733.219
     -1538.020       -1198.457          52.000          47.000



 111767203.311 7  86930073.095 6  20908368.961    20908368.707    20908375.617
     -2732.845       -2125.552          44.700          40.900



 103440923.772 8  80454080.729 8  19384784.922    19384784.305    19384787.840
      1323.105        1029.072          50.200          48.200



 108882561.302 8  84843588.589 8  20719666.578                    20719670.035
       995.720         775.886          51.300          49.300



 125069664.740 6  97276432.569 6  23429768.375    23429767.301    23429770.406
     -2325.292       -1808.552          41.900          37.000



 138593906.349 6                  26373542.852
      2410.830                          41.400                   103495455.718 6
  26373544.988        1800.298          40.200   106195326.843 6  26373543.066
      1847.256          38.900   104845398.885 7  26373544.750        1823.780
        45.200
 128351387.284 8                  24424456.039
     -1629.190                          48.500                    95846825.842 8
  24424460.789       -1216.605          51.100    98347172.593 8  24424458.445
     -1248.344          50.000    97097004.324 9  24424460.340       -1232.472
        56.700
 138916282.809 6                  26434892.586
      -922.794                          39.600                   103736183.369 6
  26434893.078        -689.102          39.900   106442339.814 6  26434891.906
      -707.076          39.100   105089264.694 7  26434893.410        -698.081
        45.300
 119766554.387 8                  22790816.781
      -986.274                          51.000                    89436078.650 8
  22790819.867        -736.503          50.300    91769183.257 8  22790818.082
      -755.715          50.200    90602634.558 9  22790819.551        -746.108
        56.000
 148965236.768 7                  28347146.344
     -2891.353                          45.100                   111240305.636 7
  28347151.922       -2159.120          46.200   114142214.402 7  28347148.777
     -2215.441          46.000   112691259.632 8  28347150.535       -2187.284
        51.500
  63101021.759 7                  12007724.250
       836.897                          43.600



 202651340.750 6                  38563262.734
       -88.263                          40.400



 18  4  4  7  4  0.0000000  0 23R10G13R11G09G02R12R13G28R19R03G30G07
                                R01R02G05R18E19E07E12E30E02E20S20
 130105158.235 6                  24407380.469    24407377.340
     -4358.810                          36.800



 120222822.136 7  93680134.56344  22877642.367                    22877645.180
      2813.176        2192.083          45.700          28.700



 108145380.200 8  84113082.253 7  20237933.609    20237933.012    20237935.070
     -2194.968       -1707.195          50.200          45.900



 120391778.399 7  93811923.804 7  22909827.250                    22909832.977
     -2824.533       -2200.929          46.800          43.900    89903100.540 8
  22909833.711       -2109.229          48.500


 123580703.079 6  96296654.59144  23516631.859                    23516633.859
     -2614.888       -2037.578          40.600          26.800



 104109959.740 7                  19489604.383    19489603.047
      1723.870                          47.700



 125282532.321 5  97441995.279 5  23461394.375    23461392.277    23461401.270
      4498.514        3498.874          31.900          32.400



 122165270.951 6  95193832.49643  23247297.539                    23247303.480
      3040.201        2368.988          39.100          23.500



 126118115.846 6  98091887.154 6  23576452.375    23576450.371    23576452.801
       775.332         603.041          39.700          38.300



 121757086.059 7  94699966.711 6  22745246.961    22745245.488    22745249.563
      3706.502        2882.820          42.200          41.800



 106583353.979 8  83052008.750 8  20282140.250                    20282146.113
       131.871         102.756          52.700          51.300    79591511.627 9
  20282146.488          98.474          56.200


 110852583.683 8  86378664.612 7  21094548.438                    21094552.266
     -1550.834       -1208.441          52.600          47.600



 111849397.100 7  86994001.560 6  20923745.375    20923744.535    20923751.215
     -2746.229       -2135.977          44.600          41.100



 103401475.488 8  80423398.714 8  19377392.484    19377391.164    19377395.172
      1307.324        1016.822          49.300          48.700



 108852960.545 8  84820523.059 8  20714034.328                    20714037.074
       978.272         762.290          51.600          48.400



 125139713.638 6  97330915.075 5  23442889.484    23442888.289    23442891.891
     -2343.958       -1823.115          40.200          35.200



 138521606.690 6                  26359784.789
      2409.241                          41.200                   103441465.718 6
  26359787.023        1799.108          40.400   106139928.420 6  26359784.164
      1846.039          39.900   104790704.678 7  26359786.672        1822.574
        45.300
 128400369.401 8                  24433777.156
     -1636.017                          48.900                    95883403.365 8
  24433781.980       -1221.701          50.900    98384704.319 8  24433779.637
     -1253.567          50.100    97134058.952 9  24433781.422       -1237.634
        56.800
 138944173.248 6                  26440200.008
      -936.021                          38.500                   103757010.629 6
  26440200.172        -698.977          40.000   106463710.393 6  26440198.344
      -717.215          39.400   105110363.618 7  26440200.781        -708.092
        45.100
 119796353.439 8                  22796486.961
      -999.835                          50.900                    89458331.195 8
  22796490.875        -746.630          50.700    91792016.289 8  22796488.438
      -766.111          49.500    90625177.349 9  22796490.121        -756.371
        56.300
 149052042.862 6                  28363664.695
     -2895.510                          38.800                   111305128.383 6
  28363668.641       -2162.235          36.800   114208728.064 6  28363666.859
     -2218.635          39.700   112756927.834 7  28363668.266       -2190.438
        43.600
  63076028.039 7                  12002968.234
       829.654                          43.800



 202653987.537 6                  38563760.641
       -88.226                          40.100



 18  4  4  7  4 30.0000000  0 23R10G13R11G09G02R12R13G28R19R03G30G07
                                R01R02G05R18E19E07E12E30E02E20S20
 130235963.039 5                  24431917.977    24431914.613
     -4361.325                          34.800



 120138504.225 7  93614432.30644  22861596.945                    22861600.059
      2808.224        2188.230          45.800          28.100



 108211562.340 8  84164557.300 7  20250318.281    20250317.215    20250321.035
     -2216.396       -1723.876          48.600          47.100



 120476592.187 7  93878012.454 7  22925966.227                    22925971.703
     -2829.507       -2204.815          44.300          43.100    89966435.477 7
  22925972.551       -2112.943          47.600


 123659277.204 6  96357881.15444  23531584.656                    23531587.094
     -2622.989       -2043.887          40.300          27.900



 104058631.807 7                  19479996.430    19479993.918
      1698.858                          47.200



 125147647.357 5  97337084.835 5  23436134.594    23436132.027    23436141.797
      4493.887        3495.282          33.100          32.700



 122074173.185 6  95122847.25843  23229963.555                    23229967.285
      3033.247        2363.581          40.600          23.200



 126095249.354 6  98074102.129 6  23572178.797    23572177.145    23572179.113
       749.942         583.290          40.300          38.800



 121645921.595 7  94613505.482 6  22724480.484    22724479.246    22724482.242
      3704.581        2881.341          43.100          41.300



 106579663.404 8  83049132.979 8  20281438.227                    20281443.988
       114.789          89.448          51.200          51.000    79588755.673 9
  20281444.715          85.715          56.100


 110899309.431 8  86415074.260 7  21103440.227                    21103443.906
     -1563.736       -1218.492          52.300          47.700



 111931994.760 7  87058244.154 6  20939196.836    20939195.879    20939202.191
     -2759.774       -2146.481          44.300          41.200



 103362504.095 8  80393087.623 8  19370089.047    19370088.195    19370091.723
      1291.307        1004.371          50.200          48.200



 108823886.015 8  84797867.581 8  20708501.219                    20708504.617
       960.646         748.557          51.000          48.500



 125210322.572 7  97385833.120 6  23456118.148    23456117.777    23456122.199
     -2362.572       -1837.557          42.600          40.000



 138449357.732 6                  26346036.477
      2407.461                          40.900                   103387513.589 6
  26346038.188        1797.777          40.700   106084568.857 6  26346037.063
      1844.677          39.900   104736048.831 7  26346038.137        1821.224
        45.700
 128449558.082 8                  24443137.320
     -1642.954                          49.100                    95920135.150 8
  24443142.410       -1226.878          51.000    98422394.326 8  24443140.066
     -1258.887          50.400    97171269.848 9  24443141.770       -1242.884
        56.700
 138972462.081 6                  26445582.375
      -949.374                          37.300                   103778135.381 6
  26445584.387        -708.945          40.400   106485386.208 6  26445582.559
      -727.440          39.800   105131763.904 7  26445583.992        -718.193
        45.500
 119826560.468 8                  22802235.297
     -1013.481                          49.900                    89480888.373 8
  22802239.199        -756.818          51.300    91815161.915 8  22802236.293
      -776.558          49.700    90648028.759 9  22802238.254        -766.690
        56.400
 149138975.654 7                  28380207.625
     -2899.801                          42.100                   111370045.595 7
  28380213.188       -2165.437          43.100   114275338.862 6  28380209.012
     -2221.929          37.900   112822691.839 7  28380211.676       -2193.682
        46.600
  63051254.496 7                  11998253.719
       822.187                          44.100



 202656630.995 6                  38564270.063
       -88.325                          41.200



 18  4  4  7  5  0.0000000  0 23R10G13R11G09G02R12R13G28R19R03G30G07
                                R01R02G05R18E19E07E12E30E02E20S20
 130366837.971 5                  24456470.852    24456467.723
     -4363.575                          32.000



 120054333.596 7  93548844.80344  22845579.719                    22845583.223
      2803.350        2184.421          45.900          28.900



 108278383.538 8  84216529.289 8  20262823.000    20262822.051    20262826.707
     -2237.573       -1740.348          49.300          48.700



 120561552.541 7  93944215.285 7  22942133.391                    22942139.414
     -2834.324       -2208.558          45.100          43.500    90029879.855 8
  22942140.559       -2116.536          48.900


 123738090.901 6  96419294.39244  23546582.281                    23546583.430
     -2630.924       -2050.061          40.400          26.800



 104008053.154 7                  19470526.672    19470525.922
      1673.906                          47.200



 125012900.524 5  97232281.755 5  23410900.383    23410898.754    23410907.965
      4489.307        3491.659          32.300          32.700



 121983283.613 6  95052024.22144  23212667.172                    23212671.559
      3026.342        2358.197          40.600          26.100



 126073142.181 6  98056907.657 6  23568045.125    23568043.824    23568047.797
       724.688         563.637          38.800          39.800



 121534813.900 7  94527088.414 7  22703724.125    22703722.535    22703727.410
      3702.714        2879.866          42.700          42.100



 106576483.142 8  83046654.857 8  20280833.250                    20280838.984
        97.829          76.230          52.200          51.500    79586380.798 9
  20280839.070          73.053          55.900


 110946419.407 8  86451783.315 7  21112405.023                    21112408.133
     -1576.472       -1228.418          51.900          47.300



 112014995.500 7  87122800.254 6  20954723.922    20954723.199    20954729.934
     -2773.134       -2156.875          44.100          40.900



 103324012.015 8  80363149.336 8  19362876.227    19362875.023    19362879.008
      1275.385         991.965          49.400          48.300



 108795339.540 8  84775623.575 8  20703068.883                    20703072.512
       943.067         734.854          50.700          48.200



 125281488.219 6  97441184.099 6  23469449.320    23469447.891    23469454.074
     -2381.083       -1851.953          38.800          39.700



 138377160.417 6                  26332298.445
      2405.784                          41.600                   103333600.009 6
  26332299.332        1796.523          40.600   106029248.823 6  26332297.645
      1843.397          39.900   104681432.025 7  26332299.566        1819.956
        45.700
 128498953.516 8                  24452536.992
     -1649.816                          48.800                    95957021.329 8
  24452542.129       -1232.006          50.800    98460242.757 8  24452539.551
     -1264.147          50.200    97208637.148 9  24452541.371       -1248.069
        56.700
 139001148.423 6                  26451041.766
      -962.553                          38.400                   103799556.953 6
  26451043.758        -718.795          40.600   106507366.610 6  26451041.504
      -737.546          39.800   105153464.885 7  26451042.820        -728.161
        45.700
 119857174.586 8                  22808060.789
     -1026.991                          50.700                    89503749.546 8
  22808065.414        -766.909          51.500    91838619.489 8  22808061.852
      -786.919          49.000    90671188.131 9  22808064.180        -776.915
        56.400
 149226033.107 7                  28396774.414
     -2903.860                          42.500                   111435055.931 7
  28396779.008       -2168.462          42.400   114342045.157 6  28396776.477
     -2225.033          41.600   112888550.156 7  28396778.496       -2196.750
        47.800
  63026701.937 7                  11993581.734
       814.870                          44.200



 202659269.947 6                  38564768.297
       -87.866                          40.300



 18  4  4  7  5 30.0000000  0 23R10G13R11G09G02R12R13G28R19R03G30G07
                                R01R02G05R18E19E07E12E30E02E20S20
 130497780.073 5                  24481036.766    24481032.227
     -4365.781                          30.300



 119970310.878 7  93483372.58444  22829590.016                    22829594.355
      2798.352        2180.534          46.800          29.800



 108345840.585 8  84268995.852 7  20275447.391    20275446.793    20275449.961
     -2258.791       -1756.843          50.200          47.000



 120646659.131 7  94010532.053 7  22958329.242                    22958334.918
     -2839.243       -2212.391          44.700          42.700    90093433.433 8
  22958336.000       -2120.208          48.900


 123817141.891 7  96480892.49344  23561625.414                    23561626.203
     -2638.842       -2056.243          43.000          25.200



 103958225.892 7                  19461199.242    19461198.141
      1648.760                          47.400



 124878295.252 5  97127588.854 5  23385692.820    23385690.840    23385699.660
      4484.496        3487.913          31.600          30.600



 121892605.047 6  94981365.63944  23195412.430                    23195415.906
      3019.169        2352.586          41.100          25.600



 126051795.821 6  98040305.003 6  23564054.234    23564051.059    23564056.383
       699.228         543.858          39.000          40.100



 121423765.796 7  94440717.660 6  22682979.617    22682978.613    22682983.113
      3700.593        2878.237          43.600          41.500



 106573812.967 8  83044574.194 8  20280325.031                    20280330.867
        80.769          62.937          51.000          51.100    79584386.833 9
  20280331.242          60.312          56.100


 110993912.140 8  86488790.663 7  21121442.859                    21121445.059
     -1589.263       -1238.388          53.500          46.700



 112098398.509 7  87187669.203 6  20970325.695    20970325.090    20970331.832
     -2786.596       -2167.335          43.900          40.900



 103286001.865 8  80333585.893 8  19355752.750    19355751.664    19355755.742
      1259.202         979.378          49.700          48.500



 108767322.567 8  84753792.160 8  20697737.609                    20697741.203
       925.307         721.017          50.800          48.700



 125353206.990 7  97496965.248 6  23482885.734    23482884.660    23482888.848
     -2399.522       -1866.280          42.200          37.900



 138305015.758 6                  26318569.102
      2403.930                          41.400                   103279725.747 6
  26318570.953        1795.147          40.800   105973969.167 6  26318569.266
      1841.972          40.500   104626855.063 7  26318570.875        1818.560
        46.300
 128548555.891 8                  24461976.094
     -1656.781                          49.200                    95994062.034 8
  24461980.914       -1237.208          50.700    98498249.745 8  24461978.383
     -1269.484          50.100    97246160.996 9  24461980.453       -1253.341
        56.700
 139030231.425 6                  26456576.063
      -975.829                          36.700                   103821274.767 6
  26456577.059        -728.700          39.800   106529650.974 6  26456575.883
      -747.706          39.600   105175465.983 7  26456577.012        -738.210
        45.400
 119888194.984 8                  22813964.102
     -1040.579                          51.900                    89526914.120 8
  22813967.836        -777.056          50.700    91862388.373 8  22813964.883
      -797.327          49.300    90694654.857 9  22813967.238        -787.189
        56.200
 149313214.265 6                  28413363.867
     -2908.036                          36.500                   111500158.617 6
  28413368.938       -2171.583          37.900   114408846.144 6  28413366.594
     -2228.232          39.600   112954501.987 7  28413368.211       -2199.906
        44.300
  63002371.609 7                  11988951.820
       807.372                          43.500



 202661907.452 6                  38565274.813
       -87.806                          39.100



 18  4  4  7  6  0.0000000  0 22G13R11G09G02R12R13G28R19R03G30G07R01
                                R02G05R18E19E07E12E30E02E20S20
 119886437.335 7  93418016.58144  22813629.813                    22813634.059
      2793.381        2176.660          43.900          29.200



 108413929.774 8  84321954.153 7  20288188.031    20288188.023    20288191.160
     -2279.757       -1773.154          48.600          46.600



 120731910.704 7  94076961.841 7  22974552.258                    22974558.207
     -2844.057       -2216.148          45.400          43.000    90157095.288 8
  22974558.527       -2123.810          48.100


 123896426.609 7  96542672.80444  23576712.344                    23576714.730
     -2646.556       -2062.248          43.500          27.600



 103909151.056 7                  19452011.906    19452010.805
      1623.697                          47.500



 124743834.556 5  97023008.362 5  23360515.453    23360512.418    23360517.859
      4479.669        3484.179          31.900          32.000



 121802140.185 6  94910873.54944  23178196.500                    23178200.801
      3012.032        2347.044          41.000          26.400



 126031210.533 6  98024294.201 6  23560205.352    23560204.758    23560207.832
       673.934         524.155          38.900          38.900



 121312778.448 7  94354394.185 7  22662246.719    22662245.598    22662249.867
      3698.546        2876.653          43.900          42.000



 106571651.783 8  83042890.149 8  20279913.266                    20279919.590
        63.837          49.744          52.300          51.100    79582772.958 9
  20279919.965          47.669          56.000


 111041785.428 8  86526094.513 8  21130552.398                    21130556.352
     -1601.889       -1248.227          52.200          48.400



 112182202.161 7  87252849.795 6  20986003.789    20986002.715    20986008.773
     -2799.895       -2177.714          45.000          40.500



 103248475.501 8  80304398.724 8  19348720.633    19348719.195    19348723.133
      1243.033         966.785          50.200          48.900



 108739836.101 8  84732374.127 8  20692506.875                    20692510.336
       907.637         707.252          50.500          48.400



 125425474.561 6  97553173.482 6  23496423.344    23496422.621    23496426.730
     -2417.733       -1880.461          41.400          38.300



 138232923.999 6                  26304850.422
      2402.176                          41.400                   103225891.002 6
  26304852.621        1793.837          40.600   105918730.033 6  26304850.605
      1840.625          39.400   104572318.126 7  26304852.477        1817.231
        46.000
 128598364.639 8                  24471454.344
     -1663.629                          48.900                    96031256.853 8
  24471459.496       -1242.317          51.500    98536414.871 8  24471457.008
     -1274.725          50.200    97283840.972 9  24471458.785       -1258.523
        56.700
 139059709.621 6                  26462185.859
      -988.944                          37.500                   103843287.642 6
  26462186.531        -738.494          39.300   106552238.105 6  26462184.750
      -757.764          39.900   105197765.987 7  26462186.539        -748.129
        44.800
 119919620.048 8                  22819944.227
     -1054.007                          51.700                    89550380.891 8
  22819947.914        -787.085          50.100    91886467.327 8  22819945.430
      -807.619          49.700    90718427.716 9  22819947.406        -797.346
        56.100
 149400516.673 6                  28429977.289
     -2912.016                          39.000                   111565351.930 6
  28429981.781       -2174.553          39.400   114475740.129 6  28429979.105
     -2231.285          36.500   113020545.638 7  28429981.090       -2202.919
        43.800
  62978263.632 7                  11984364.180
       799.988                          43.300



 202664545.497 6                  38565777.094
       -87.862                          39.800



 18  4  4  7  6 30.0000000  0 22G13R11G09G02R12R13G28R19R03G30G07R01
                                R02G05R18E19E07E12E30E02E20S20
 119802713.621 7  93352777.35744  22797698.406                    22797701.520
      2788.309        2172.705          44.500          29.400



 108482648.075 8  84375401.677 8  20301048.414    20301047.582    20301051.180
     -2300.756       -1789.480          49.800          48.200



 120817306.902 7  94143504.297 7  22990802.117                    22990807.598
     -2848.931       -2219.948          44.700          42.500    90220865.132 8
  22990808.563       -2127.448          48.100


 123975942.445 7  96604633.13844  23591843.500                    23591845.449
     -2654.264       -2068.253          43.900          28.000



 103860829.949 7                  19442966.688    19442964.883
      1598.472                          47.400



 124609521.822 5  96918542.938 4  23335362.383    23335358.879    23335364.215
      4474.618        3480.246          34.200          29.100



 121711891.784 6  94840550.12744  23161022.828                    23161027.105
      3004.699        2341.327          41.100          24.500



 126011387.210 6  98008876.075 6  23556501.539    23556499.184    23556502.180
       648.416         504.331          39.700          38.700



 121201854.662 7  94268120.109 6  22641524.734    22641524.082    22641528.133
      3696.360        2874.944          43.800          41.400



 106569999.314 8  83041602.520 8  20279598.953                    20279604.465
        46.834          36.493          51.600          51.100    79581538.981 9
  20279604.898          34.969          56.000


 111090038.089 8  86563693.943 7  21139734.789                    21139738.582
     -1614.567       -1258.102          52.800          47.300



 112266406.110 7  87318341.710 6  21001755.875    21001754.684    21001761.367
     -2813.287       -2188.108          43.900          40.900



 103211435.387 8  80275589.733 8  19341779.008    19341778.746    19341782.664
      1226.763         954.149          49.700          48.900



 108712881.791 8  84711370.771 8  20687377.922                    20687381.207
       889.838         693.382          50.400          48.200



 125498287.634 6  97609805.790 6  23510062.945    23510061.281    23510067.566
     -2435.887       -1894.619          38.200          40.400



 138160886.165 6                  26291142.438
      2400.345                          40.400                   103172096.534 6
  26291143.863        1792.469          41.400   105863532.223 6  26291141.234
      1839.230          40.200   104517821.988 7  26291144.008        1815.849
        46.100
 128648379.987 8                  24480971.953
     -1670.560                          49.300                    96068605.962 8
  24480976.988       -1247.495          50.900    98574738.304 8  24480974.410
     -1280.042          50.400    97321677.243 9  24480976.465       -1263.767
        56.500
 139089582.172 6                  26467870.242
     -1002.165                          37.400                   103865595.028 6
  26467871.371        -748.366          39.100   106575127.437 6  26467869.684
      -767.898          39.600   105220364.342 7  26467871.145        -758.134
        44.600
 119951448.995 8                  22826000.742
     -1067.510                          51.300                    89574149.266 8
  22826004.406        -797.163          49.900    91910855.743 8  22826002.297
      -817.964          49.800    90742506.112 9  22826004.176        -807.564
        56.000
 149487938.903 6                  28446613.367
     -2916.072                          37.700                   111630634.637 6
  28446618.156       -2177.575          41.700   114542725.929 6  28446615.719
     -2234.390          39.200   113086679.889 7  28446617.496       -2205.982
        46.300
  62954379.144 7                  11979818.805
