     2.11           OBSERVATION DATA    M (MIXED)           RINEX VERSION / TYPE
teqc  2016Nov7                          20180405 04:56:57UTCPGM / RUN BY / DATE
PRNY                                                        MARKER NAME
19857M001                                                   MARKER NUMBER
Automatic           EXAGONE                                 OBSERVER / AGENCY
1294-10805          TPS NET-G5          5.0                 REC # / TYPE / VERS
383-0738            TPSCR.G3        TPSH                    ANT # / TYPE
  4339328.3590   482005.6830  4635194.1790                  APPROX POSITION XYZ
        0.0000        0.0000        0.0000                  ANTENNA: DELTA H/E/N
     1     1                                                WAVELENGTH FACT L1/2
     9    C1    L1    D1    P2    L2    D2    P1    S1    S2# / TYPES OF OBSERV
    30.0000                                                 INTERVAL
    18                                                      LEAP SECONDS
Linux 2.4.21-27.ELsmp|Opteron|gcc|Linux x86_64|=+           COMMENT
teqc  2016Nov7                          20180405 04:56:57UTCCOMMENT
teqc  2016Nov7      IGN-RGP             20180404 08:08:13UTCCOMMENT
teqc  2016Nov7      Administrateur RGP  20180404 08:08:13UTCCOMMENT
teqc  2016Nov7      IGN-RGP             20180404 08:08:11UTCCOMMENT
teqc_2016 edited: GLONASS # 25 - 30 excluded                COMMENT
GN-RINEX 1.3        Geo++ Teria         04-APR-18 08:00     COMMENT
Forced Modulo Decimation to 30 seconds                      COMMENT
teqc_2016 edited: GLONASS # 25 - 30 excluded                COMMENT
teqc_2016 edited: all SBAS satellites excluded              COMMENT
teqc_2016 edited: all Galileo satellites excluded           COMMENT
  2018     4     4     7     0    0.0000000     GPS         TIME OF FIRST OBS
                                                            END OF HEADER
 18  4  4  7  0  0.0000000  0 15G30G05G07G09G13G28G02R02R12R11R01R03
                                R18R19R13
  20291776.718   106634011.961 9       261.040    20291780.560    83091447.073 8
       203.404                          55.000          50.000
  20758972.956   109089136.368 9      1118.063    20758974.064    85004522.824 8
       871.210                          52.000          45.000
  21031774.201   110522723.040 9     -1452.614    21031775.291    86121592.674 7
     -1131.904                          53.000          44.000
  22789936.711   119761919.189 8     -2784.733    22789940.464    93320994.810 6
     -2169.922                          49.000          35.000
  22999719.273   120864348.632 8      2846.211    22999720.756    94180020.059 5
      2217.827                          45.000          28.000
  23387044.552   122899756.079 7      3087.882    23387045.838    95766057.342 4
      2406.193                          40.000          23.000
  23388710.374   122908487.457 7     -2545.474    23388710.106    95772830.574 5
     -1983.515                          43.000          30.000
  19440186.919   103736568.973 9      1429.165    19440187.366    80684064.524 8
      1111.583                          56.000          50.000
  19569951.371   104539184.425 9      1915.350
                                        52.000
  20149866.566   107674780.572 9     -2025.734    20149867.656    83747114.252 8
     -1575.571                          54.000          47.000
  20807212.420   111226471.957 8     -2634.866    20807215.136    86509486.168 7
     -2049.343                          49.000          40.000
  22909175.397   122634621.836 7      3714.445    22909179.704    95382484.720 7
      2889.005                          42.000          42.000
  23336072.253   124569528.119 7     -2183.995    23336074.379    96887461.217 7
     -1698.658                          44.000          39.000
  23619718.351   126349574.691 7       983.088    23619719.602    98271929.526 7
       764.619                          40.000          39.000
  23655750.074   126320396.236 6      4530.960    23655754.345    98249199.088 5
      3524.101                          36.000          30.000
 18  4  4  7  0 30.0000000  0 15G30G05G07G09G13G28G02R02R12R11R01R03
                                R18R19R13
  20290335.027   106626435.353 9       243.964    20290338.744    83085543.225 8
       190.103                          56.000          49.000
  20752638.619   109055848.950 9      1100.987    20752639.691    84978584.569 8
       857.913                          54.000          45.000
  21040104.185   110566497.677 9     -1465.801    21040105.311    86155702.765 7
     -1142.186                          53.000          44.000
  22805848.951   119845534.671 8     -2789.704    22805852.239    93386149.706 6
     -2173.808                          49.000          35.000
  22983483.711   120779030.859 7      2841.563    22983484.801    94113538.691 5
      2214.196                          44.000          28.000
  23369433.075   122807208.714 7      3081.843    23369435.237    95693942.574 4
      2401.433                          40.000          24.000
  23403266.676   122984981.496 7     -2554.222    23403266.283    95832436.285 5
     -1990.306                          44.000          29.000
  19432194.087   103693921.961 9      1413.907    19432195.517    80650894.640 8
      1099.709                          56.000          49.000
  19559263.211   104482089.572 9      1890.862
                                        52.000
  20161301.508   107735883.318 9     -2047.854    20161301.973    83794638.621 8
     -1592.782                          55.000          48.000
  20822037.652   111305720.375 8     -2648.452    20822040.725    86571123.790 7
     -2059.905                          48.000          41.000
  22888364.454   122523205.771 8      3713.239    22888366.688    95295827.810 7
      2888.058                          45.000          43.000
  23348401.432   124635340.752 7     -2203.558    23348403.522    96938648.818 7
     -1713.883                          44.000          39.000
  23614274.428   126320454.787 7       958.225    23614275.857    98249280.742 6
       745.274                          39.000          38.000
  23630305.711   126184520.219 6      4527.342    23630306.372    98143517.820 5
      3521.254                          38.000          30.000
 18  4  4  7  1  0.0000000  0 15G30G05G07G09G13G28G02R02R12R11R01R03
                                R18R13R19
  20288991.080   106619372.984 9       226.812    20288994.779    83080040.080 8
       176.737                          55.000          49.000
  20746402.455   109023077.215 9      1083.758    20746403.385    84953048.141 8
       844.491                          54.000          45.000
  21048509.649   110610669.087 9     -1479.009    21048510.792    86190122.034 7
     -1152.475                          52.000          43.000
  22821789.085   119929301.151 8     -2794.747    22821792.766    93451422.251 6
     -2177.721                          46.000          34.000
  22967275.132   120693854.644 7      2836.805    22967276.704    94047167.624 5
      2210.494                          44.000          28.000
  23351856.211   122714845.609 7      3075.609    23351859.070    95621971.366 4
      2396.571                          40.000          23.000
  23417873.566   123061738.673 7     -2562.959    23417872.655    95892247.029 5
     -1997.110                          44.000          29.000
  19424288.260   103651734.923 9      1398.595    19424289.510    80618082.476 8
      1087.795                          55.000          49.000
  19548712.768   104425732.007 9      1866.252
                                        52.000
  20172859.853   107797650.547 9     -2070.019    20172860.926    83842679.801 8
     -1610.010                          55.000          48.000
  20836938.880   111385378.837 8     -2662.119    20836942.776    86633080.330 7
     -2070.530                          48.000          41.000
  22867559.229   122411829.793 8      3711.827    22867559.819    95209202.087 7
      2886.978                          47.000          41.000
  23360840.327   124701739.890 7     -2223.109    23360842.042    96990292.569 6
     -1729.079                          43.000          38.000
  23604880.968   126048757.546 6      4523.515    23604884.006    98037924.669 5
      3518.310                          38.000          29.000
  23608969.651   126292084.702 6       933.085    23608972.260    98227215.165 6
       725.750                          38.000          37.000
 18  4  4  7  1 30.0000000  0 15G30G05G07G09G13G28G02R02R12R11R01R03
                                R18R13R19
  20287744.930   106612824.865 9       209.813    20287748.772    83074937.649 8
       163.491                          56.000          49.000
  20740264.696   108990822.794 9      1066.610    20740265.572    84927914.826 8
       831.120                          53.000          45.000
  21056990.484   110655236.108 9     -1492.061    21056991.609    86224849.573 7
     -1162.644                          53.000          44.000
  22837757.165   120013218.359 8     -2799.700    22837761.132    93516812.263 6
     -2181.597                          46.000          34.000
  22951093.695   120608821.289 7      2832.154    22951095.267    93980907.885 5
      2206.872                          43.000          29.000
  23334316.764   122622670.423 7      3069.459    23334318.247    95550146.601 4
      2391.780                          41.000          23.000
  23432528.774   123138756.497 7     -2571.495    23432528.970    95952260.878 5
     -2003.742                          44.000          29.000
  19416468.972   103610010.328 9      1383.157    19416470.383    80585630.022 8
      1075.793                          56.000          50.000
  19538301.078   104370114.124 9      1841.663
                                        52.000
  20184542.263   107860079.683 9     -2091.869    20184543.675    83891235.794 8
     -1627.009                          54.000          48.000
  20851917.374   111465446.852 8     -2675.651    20851920.894    86695355.412 7
     -2081.057                          48.000          41.000
  22846762.885   122300496.322 8      3710.476    22846760.955    95122609.336 7
      2885.919                          47.000          39.000
  23373387.311   124768722.466 7     -2242.300    23373390.688    97042390.108 6
     -1744.012                          42.000          38.000
  23579478.115   125913111.949 6      4519.695    23579481.153    97932422.580 5
      3515.302                          38.000          29.000
  23603808.827   126264466.268 7       908.147    23603809.024    98205734.167 6
       706.325                          41.000          36.000
 18  4  4  7  2  0.0000000  0 15G30G05G07G09G13G28G02R02R12R11R01R03
                                R18R13R19
  20286596.560   106606790.137 9       192.625    20286600.491    83070235.263 8
       150.089                          55.000          50.000
  20734225.645   108959087.160 9      1049.200    20734226.467    84903185.753 8
       817.559                          54.000          45.000
  21065546.100   110700196.485 9     -1505.197    21065547.298    86259883.647 7
     -1172.887                          53.000          44.000
  22853754.908   120097285.159 8     -2804.702    22853758.607    93582318.803 6
     -2185.481                          46.000          34.000
  22934940.313   120523931.197 8      2827.297    22934941.313    93914759.766 5
      2203.092                          45.000          29.000
  23316811.912   122530686.017 7      3062.948    23316814.485    95478470.477 4
      2386.715                          40.000          24.000
  23447234.033   123216031.778 7     -2580.109    23447233.389    96012475.348 5
     -2010.467                          44.000          29.000
  19408736.509   103568750.212 9      1367.571    19408738.261    80553538.809 8
      1063.664                          55.000          50.000
  19528027.998   104315236.927 9      1816.902    19528028.874    81134063.92713
                                        53.000          20.000
  20196348.094   107923166.814 9     -2113.800    20196349.542    83940303.560 8
     -1644.068                          53.000          48.000
  20866972.133   111545923.226 8     -2689.306    20866975.493    86757948.104 7
     -2091.677                          48.000          41.000
  22825972.098   122189206.652 8      3708.966    22825970.150    95036050.674 6
      2884.750                          48.000          37.000
  23386043.976   124836284.593 7     -2261.606    23386046.817    97094938.396 6
     -1759.020                          42.000          38.000
  23554100.100   125777586.542 6      4515.501    23554102.191    97827013.989 5
      3512.025                          38.000          30.000
  23598785.845   126237600.203 7       883.038    23598786.291    98184838.362 6
       686.825                          39.000          36.000
 18  4  4  7  2 30.0000000  0 15G30G05G07G09G13G28G02R02R12R11R01R03
                                R18R13R19
  20285545.772   106601268.576 9       175.481    20285549.721    83065932.753 8
       136.743                          54.000          49.000
  20728285.446   108927872.132 9      1031.786    20728286.482    84878862.346 8
       803.991                          52.000          45.000
  21074176.374   110745548.925 9     -1518.297    21074177.696    86295223.204 7
     -1183.099                          53.000          43.000
  22869780.742   120181501.097 8     -2809.687    22869784.530    93647941.582 6
     -2189.366                          46.000          34.000
  22918813.430   120439185.415 8      2822.452    22918814.609    93848724.103 5
      2199.334                          45.000          29.000
  23299345.192   122438894.669 7      3056.382    23299346.854    95406944.788 4
      2381.616                          40.000          24.000
  23461987.735   123293562.164 7     -2588.590    23461987.502    96072888.607 5
     -2017.089                          42.000          29.000
  19401092.392   103527957.071 9      1351.954    19401093.571    80521810.817 8
      1051.524                          55.000          49.000
  19517894.314   104261102.576 9      1792.077
                                        53.000
  20208276.543   107986909.026 9     -2135.642    20208278.151    83989880.822 8
     -1661.049                          54.000          49.000
  20882103.247   111626806.816 8     -2702.912    20882106.499    86820857.544 7
     -2102.266                          48.000          40.000
  22805188.459   122077963.218 7      3707.330    22805190.120    94949528.043 7
      2883.479                          44.000          40.000
  23398808.855   124904422.673 7     -2280.849    23398811.214    97147934.643 6
     -1773.982                          42.000          38.000
  23528743.134   125642184.161 6      4511.286    23528746.529    97721701.081 5
      3508.747                          38.000          30.000
  23593904.814   126211488.076 7       857.794    23593904.099    98164528.928 6
       667.168                          40.000          34.000
 18  4  4  7  3  0.0000000  0 15G30G05G07G09G13G28G02R02R12R11R01R03
                                R18R13R19
  20284592.638   106596259.246 9       158.402    20284596.444    83062029.384 8
       123.431                          55.000          49.000
  20722444.759   108897178.306 9      1014.376    20722445.653    84854945.074 8
       790.425                          53.000          45.000
  21082881.179   110791291.527 9     -1531.279    21082882.340    86330866.780 7
     -1193.201                          52.000          44.000
  22885835.076   120265865.186 8     -2814.636    22885838.721    93713679.804 6
     -2193.211                          46.000          35.000
  22902713.994   120354583.612 7      2817.644    22902716.013    93782800.636 5
      2195.567                          44.000          29.000
  23281914.746   122347299.491 7      3049.881    23281916.319    95335571.970 4
      2376.515                          40.000          24.000
  23476789.164   123371344.154 7     -2596.975    23476788.861    96133497.913 5
     -2023.623                          42.000          29.000
  19393535.206   103487632.646 9      1336.264    19393537.047    80490447.369 8
      1039.312                          55.000          50.000
  19507899.580   104207711.945 9      1767.264
                                        53.000
  20220327.358   108051302.763 9     -2157.339    20220328.949    84039964.817 8
     -1677.928                          54.000          48.000
  20897310.411   111708096.610 8     -2716.444    20897313.270    86884082.912 7
     -2112.782                          49.000          41.000
  22784418.829   121966767.794 8      3705.627    22784417.774    94863042.718 7
      2882.146                          47.000          40.000
  23411680.699   124973132.524 7     -2299.847    23411683.504    97201375.617 6
     -1788.768                          42.000          38.000
  23503410.882   125506907.332 7      4507.038    23503412.365    97616485.774 5
      3505.489                          39.000          30.000
  23589165.627   126186130.456 7       832.617    23589163.197    98144806.299 6
       647.575                          42.000          33.000
 18  4  4  7  3 30.0000000  0 15G30G05G07G13G09G28G02R02R12R11R01R03
                                R18R13R19
  20283736.980   106591762.416 9       141.360    20283740.697    83058525.360 8
       110.150                          55.000          49.000
  20716703.299   108867007.693 9       996.935    20716704.461    84831435.503 8
       776.832                          54.000          45.000
  21091659.837   110837423.228 9     -1544.201    21091660.873    86366813.549 7
     -1203.272                          54.000          43.000
  22886642.666   120270127.684 8      2812.745    22886644.078    93716990.847 5
      2191.741                          45.000          29.000
  22901916.607   120350377.327 8     -2819.531    22901920.699    93779533.390 6
     -2197.035                          46.000          35.000
  23264523.630   122255904.129 7      3043.186    23264524.006    95264354.846 4
      2371.287                          42.000          24.000
  23491638.108   123449375.680 7     -2605.206    23491638.019    96194301.651 5
     -2030.026                          43.000          28.000
  19386067.206   103447780.384 9      1320.519    19386068.599    80459451.168 8
      1027.075                          55.000          49.000
  19498044.171   104155067.483 9      1742.361
                                        53.000
  20232499.201   108116345.500 9     -2178.850    20232500.737    84090553.601 8
     -1694.667                          54.000          48.000
  20912592.946   111789792.124 8     -2729.938    20912596.538    86947623.832 7
     -2123.291                          48.000          41.000
  22763655.882   121855622.786 8      3704.003    22763654.684    94776596.623 7
      2880.892                          49.000          40.000
  23424658.541   125042411.605 7     -2318.732    23424661.490    97255259.336 6
     -1803.475                          41.000          38.000
  23478100.608   125371760.780 6      4502.801    23478103.360    97511371.805 5
      3502.188                          38.000          30.000
  23584565.569   126161528.909 7       807.495    23584565.122    98125671.766 6
       628.033                          41.000          34.000
 18  4  4  7  4  0.0000000  0 15G30G05G07G13G09G28G02R02R12R11R01R03
                                R18R13R19
  20282978.601   106587777.124 9       124.419    20282982.371    83055419.933 8
        96.953                          54.000          50.000
  20711062.085   108837361.975 9       979.516    20711062.960    84808334.940 8
       763.261                          51.000          45.000
  21100512.133   110883941.850 9     -1556.982    21100513.134    86403061.821 7
     -1213.236                          53.000          44.000
  22870599.089   120185818.120 7      2807.934    22870600.519    93651295.080 5
      2187.993                          44.000          29.000
  22918025.924   120435036.472 8     -2824.345    22918030.499    93845501.535 6
     -2200.789                          45.000          33.000
  23247170.004   122164710.695 7      3036.441    23247171.219    95193295.034 4
      2366.053                          42.000          24.000
  23506534.065   123527653.283 7     -2613.251    23506533.636    96255297.154 5
     -2036.309                          42.000          28.000
  19378687.442   103408401.514 9      1304.825    19378689.015    80428823.151 8
      1014.864                          55.000          50.000
  19488329.122   104103170.356 9      1717.509
                                        53.000
  20244792.284   108182033.362 9     -2200.233    20244793.160    84141644.156 8
     -1711.296                          55.000          48.000
  20927951.550   111871892.022 8     -2743.336    20927954.999    87011479.272 7
     -2133.719                          48.000          41.000
  22742902.620   121744530.208 8      3702.290    22742902.191    94690191.280 7
      2879.548                          47.000          42.000
  23437742.723   125112255.480 7     -2337.435    23437745.367    97309582.326 6
     -1817.988                          41.000          38.000
  23452818.263   125236746.357 6      4498.334    23452818.120    97406360.624 5
      3498.696                          38.000          31.000
  23580107.962   126137684.276 7       782.340    23580108.606    98107125.933 6
       608.488                          41.000          36.000
 18  4  4  7  4 30.0000000  0 15G30G05G07G13G09G28G02R02R12R11R01R03
                                R13R18R19
  20282317.608   106584302.798 9       107.352    20282321.235    83052712.664 8
        83.651                          54.000          49.000
  20705520.579   108808241.947 9       961.955    20705521.633    84785644.004 8
       749.574                          52.000          45.000
  21109437.531   110930845.850 9     -1569.789    21109438.711    86439610.389 7
     -1223.211                          52.000          44.000
  22854583.745   120101655.850 8      2803.019    22854584.978    93585714.103 5
      2184.208                          46.000          29.000
  22934163.957   120519841.938 8     -2829.213    22934168.746    93911583.684 6
     -2204.587                          45.000          33.000
  23229854.849   122073722.097 7      3029.551    23229857.029    95122394.869 4
      2360.679                          42.000          25.000
  23521476.089   123606174.216 7     -2621.374    23521475.070    96316482.270 5
     -2042.648                          42.000          28.000
  19371397.059   103369498.433 9      1288.886    19371398.560    80398565.203 8
      1002.464                          55.000          50.000
  19478753.881   104052022.035 9      1692.510
                                        53.000
  20257204.769   108248363.157 9     -2221.594    20257206.109    84193233.980 8
     -1727.903                          54.000          48.000
  20943385.418   111954395.096 8     -2756.733    20943389.064    87075648.278 7
     -2144.133                          47.000          41.000
  22722159.597   121633492.004 8      3700.410    22722159.311    94603828.256 7
      2878.092                          46.000          41.000
  23427558.988   125101867.796 6      4493.662    23427561.239    97301455.129 5
      3495.082                          38.000          31.000
  23450932.724   125182660.576 7     -2356.004    23450934.690    97364341.808 6
     -1832.454                          43.000          38.000
  23575791.807   126114597.467 7       756.978    23575792.808    98089169.554 6
       588.766                          40.000          36.000
 18  4  4  7  5  0.0000000  0 15G30G05G07G13G09G28G02R02R12R11R01R03
                                R13R18R19
  20281753.483   106581338.938 9        90.378    20281757.146    83050403.160 8
        70.423                          55.000          50.000
  20700079.390   108779649.286 9       944.369    20700080.659    84763364.006 8
       735.876                          52.000          45.000
  21118435.835   110978133.715 9     -1582.563    21118437.014    86476458.068 7
     -1233.166                          51.000          43.000
  22838596.616   120017641.321 8      2798.101    22838597.367    93520248.247 5
      2180.350                          45.000          30.000
  22950330.259   120604793.037 8     -2834.054    22950334.851    93977779.302 6
     -2208.343                          45.000          33.000
  23212580.418   121982941.752 7      3022.629    23212581.704    95051656.942 4
      2355.298                          41.000          25.000
  23536464.393   123684935.525 7     -2629.257    23536463.642    96377854.668 5
     -2048.766                          42.000          28.000
  19364196.612   103331073.446 9      1272.941    19364197.630    80368679.093 8
       990.069                          55.000          50.000
  19469319.002   104001623.775 9      1667.488
                                        53.000
  20269736.618   108315331.660 9     -2242.787    20269737.816    84245320.602 8
     -1744.394                          54.000          47.000
  20958894.515   112037300.456 8     -2770.116    20958897.964    87140130.199 7
     -2154.541                          48.000          41.000
  22701425.883   121522510.054 8      3698.532    22701425.597    94517509.005 7
      2876.631                          45.000          39.000
  23402326.694   124967127.988 7      4489.090    23402328.481    97196657.518 5
      3491.535                          39.000          31.000
  23464226.634   125253623.183 7     -2374.596    23464227.760    97419534.901 6
     -1846.908                          42.000          38.000
  23571617.818   126092269.469 7       731.693    23571618.372    98071803.351 6
       569.087                          40.000          36.000
 18  4  4  7  5 30.0000000  0 15G30G05G07G13G09G28G02R02R12R11R01R03
                                R13R18R19
  20281286.637   106578885.419 9        73.223    20281290.157    83048491.325 8
        57.053                          56.000          49.000
  20694739.054   108751585.519 9       926.556    20694740.197    84741496.128 8
       721.993                          53.000          46.000
  21127507.188   111025804.014 9     -1595.420    21127508.063    86513603.740 7
     -1243.187                          53.000          43.000
  22822637.202   119933775.193 8      2792.949    22822638.435    93454898.036 5
      2176.334                          46.000          30.000
  22966523.936   120689889.512 8     -2839.025    22966528.117    94044088.220 6
     -2212.246                          47.000          34.000
  23195345.370   121892372.610 7      3015.359    23195347.675    94981083.610 4
      2349.645                          41.000          25.000
  23551496.994   123763935.049 7     -2637.294    23551496.512    96439412.702 5
     -2055.048                          42.000          27.000
  19357085.330   103293129.184 9      1256.723    19357086.867    80339166.888 8
       977.451                          55.000          50.000
  19460025.323   103951977.755 9      1642.244
                                        53.000
  20282387.654   108382935.882 9     -2264.103    20282389.155    84297901.655 8
     -1760.970                          54.000          48.000
  20974479.341   112120607.369 8     -2783.625    20974482.164    87204924.434 7
     -2165.038                          49.000          40.000
  22680704.857   121411587.394 8      3696.307    22680705.054    94431235.814 7
      2874.904                          46.000          39.000
  23377120.704   124832530.611 6      4484.053    23377123.313    97091970.714 5
      3487.605                          38.000          31.000
  23477624.899   125325139.751 7     -2393.092    23477626.489    97475158.851 6
     -1861.307                          43.000          37.000
  23567586.459   126070701.837 7       706.155    23567586.834    98055028.577 6
       549.235                          40.000          37.000
 18  4  4  7  6  0.0000000  0 15G30G05G07G13G09G28G02R02R12R11R01R03
                                R13R18R19
  20280916.605   106576940.892 9        56.265    20280920.268    83046976.114 8
        43.838                          56.000          49.000
  20689499.785   108724051.489 9       908.869    20689500.678    84720041.032 8
       708.210                          53.000          45.000
  21136650.981   111073854.313 9     -1608.060    21136651.803    86551045.520 7
     -1253.030                          54.000          43.000
  22806706.075   119850058.522 8      2787.993    22806706.914    93389664.273 5
      2172.482                          45.000          30.000
  22982744.541   120775129.994 8     -2843.821    22982749.098    94110509.316 6
     -2215.955                          46.000          34.000
  23178150.974   121802017.090 7      3008.218    23178153.297    94910676.725 4
      2344.070                          40.000          25.000
  23566574.697   123843169.059 7     -2645.080    23566574.661    96501153.446 5
     -2061.080                          42.000          27.000
  19350065.824   103255667.350 9      1240.556    19350066.717    80310029.903 8
       964.877                          56.000          50.000
  19450872.738   103903084.821 9      1617.131
                                        53.000
  20295157.430   108451171.809 9     -2285.091    20295158.574    84350974.019 8
     -1777.288                          54.000          48.000
  20990138.377   112204314.029 8     -2796.950    20990141.128    87270029.592 7
     -2175.411                          49.000          40.000
  22659995.213   121300724.963 8      3694.276    22659995.321    94345009.472 7
      2873.322                          48.000          40.000
  23351941.089   124698078.308 6      4479.218    23351944.269    96987396.740 5
      3483.840                          38.000          31.000
  23491124.463   125397205.989 7     -2411.412    23491126.357    97531210.345 6
     -1875.555                          42.000          37.000
  23563696.408   126049894.437 7       680.842    23563697.767    98038845.091 6
       529.565                          41.000          38.000
 18  4  4  7  6 30.0000000  0 15G30G05G07G13G09G28G02R02R12R11R01R03
                                R13R18R19
  20280643.191   106575505.404 9        39.391    20280647.104    83045857.552 8
        30.702                          54.000          49.000
  20684361.386   108697049.082 9       891.233    20684362.405    84699000.188 8
       694.472                          52.000          46.000
  21145866.822   111122283.737 9     -1620.606    21145867.787    86588782.717 7
     -1262.807                          52.000          43.000
  22790804.145   119766492.272 8      2783.037    22790805.450    93324547.746 5
      2168.603                          45.000          30.000
  22998991.933   120860514.344 7     -2848.482    22998996.900    94177042.537 6
     -2219.601                          44.000          33.000
  23160997.998   121711878.285 7      3001.031    23160999.946    94840438.709 4
      2338.475                          42.000          25.000
  23581697.269   123922635.176 7     -2652.699    23581696.251    96563075.056 5
     -2067.037                          42.000          27.000
  19343136.396   103218690.664 9      1224.478    19343137.289    80281270.242 8
       952.369                          55.000          50.000
  19441860.764   103854946.545 9      1592.027
                                        53.000
  20308044.980   108520036.604 9     -2305.922    20308045.749    84404535.531 8
     -1793.490                          54.000          48.000
  21005871.658   112288420.365 8     -2810.150    21005875.339    87335445.600 7
     -2185.681                          48.000          40.000
  22639297.453   121189925.796 8      3692.281    22639297.506    94258832.307 7
      2871.775                          47.000          41.000
  23326791.064   124563774.678 7      4474.274    23326794.066    96882938.400 5
      3480.006                          39.000          32.000
  23504727.686   125469818.590 7     -2429.456    23504729.562    97587686.736 6
     -1889.564                          42.000          37.000
  23559949.667   126029848.744 7       655.506    23559950.061    98023254.031 7
       509.847                          42.000          39.000
 18  4  4  7  7  0.0000000  0 15G30G05G07G13G09G28G02R02R12R11R01R03
                                R13R18R19
  20280466.842   106574578.001 9        22.522    20280470.630    83045134.905 8
        17.550                          57.000          49.000
  20679324.252   108670579.104 9       873.515    20679325.288    84678374.227 8
       680.659                          54.000          46.000
  21155154.497   111171090.061 9     -1633.065    21155155.444    86626813.608 7
     -1272.520                          53.000          43.000
  22774930.735   119683076.854 8      2778.069    22774932.200    93259548.715 5
      2164.727                          46.000          30.000
  23015267.700   120946041.622 8     -2853.224    23015271.452    94243687.121 6
     -2223.296                          45.000          33.000
  23143887.462   121621958.906 7      2993.667    23143888.498    94770371.682 4
      2332.750                          41.000          25.000
  23596862.602   124002330.188 7     -2660.220    23596861.744    96625175.038 5
     -2072.897                          42.000          27.000
  19336297.313   103182200.931 9      1208.246    19336299.064    80252889.341 8
       939.752                          55.000          50.000
  19432991.063   103807563.787 9      1566.879
                                        53.000
  20321049.162   108589526.583 9     -2326.662    20321050.145    84458583.297 8
     -1809.627                          54.000          48.000
  21021679.793   112372924.464 8     -2823.388    21021683.671    87401170.964 7
     -2195.964                          47.000          40.000
  22618610.270   121079191.270 8      3690.170    22618611.843    94172705.507 7
      2870.136                          47.000          42.000
  23301669.380   124429622.440 7      4469.261    23301671.435    96778597.787 5
      3476.088                          40.000          32.000
  23518431.922   125542973.586 7     -2447.418    23518433.584    97644585.029 6
     -1903.552                          42.000          38.000
  23556345.593   126010565.297 7       630.123    23556346.057    98008255.790 7
       490.098                          44.000          39.000
 18  4  4  7  7 30.0000000  0 15G30G05G07G13G09G28G02R02R12R11R01R03
                                R13R18R19
  20280387.039   106574158.451 9         5.489    20280390.702    83044807.981 8
         4.285                          55.000          50.000
  20674388.685   108644643.566 9       855.571    20674389.900    84658164.712 8
       666.672                          53.000          45.000
  21164513.648   111220271.695 9     -1645.658    21164514.613    86665136.955 7
     -1282.323                          53.000          43.000
  22759085.861   119599812.990 8      2772.850    22759086.629    93194667.791 5
      2160.675                          45.000          30.000
  23031569.913   121031711.503 8     -2858.091    23031574.738    94310442.854 5
     -2227.087                          46.000          32.000
  23126818.471   121532262.094 7      2986.071    23126820.383    94700478.084 4
      2326.829                          41.000          25.000
  23612070.999   124082251.595 7     -2667.822    23612070.713    96687451.400 5
     -2078.793                          42.000          27.000
  19329551.560   103146201.010 9      1191.835    19329552.614    80224889.397 8
       926.981                          56.000          50.000
  19424262.600   103760938.968 9      1541.522
                                        53.000
  20334169.224   108659638.643 9     -2347.463    20334170.814    84513114.883 8
     -1825.805                          54.000          48.000
  21037562.513   112457825.709 8     -2836.627    21037566.695    87467205.212 7
     -2206.264                          48.000          41.000
  22597936.043   120968524.142 8      3687.718    22597937.687    94086631.151 7
      2868.218                          46.000          41.000
  23276576.519   124295624.966 7      4463.922    23276578.234    96674377.564 6
      3471.950                          39.000          33.000
  23532237.047   125616667.510 7     -2465.469    23532239.334    97701902.495 6
     -1917.589                          42.000          38.000
  23552883.523   125992045.338 7       604.576    23552883.202    97993851.373 6
       470.217                          44.000          38.000
 18  4  4  7  8  0.0000000  0 15G30G05G07G13G09G28G02R02R12R11R01R03
                                R13R18R19
  20280403.728   106574245.789 9       -11.359    20280407.302    83044876.032 8
        -8.851                          56.000          49.000
  20669555.453   108619243.224 9       837.740    20669556.347    84638372.231 8
       652.779                          54.000          46.000
  21173943.632   111269826.888 9     -1658.050    21173944.525    86703751.388 7
     -1291.982                          52.000          43.000
  22743270.364   119516701.851 8      2767.772    22743271.579    93129905.886 5
      2156.705                          45.000          30.000
  23047899.859   121117523.012 7     -2862.773    23047903.880    94377308.901 5
     -2230.731                          44.000          32.000
  23109792.633   121442790.668 7      2978.650    23109793.688    94630760.072 4
      2321.027                          41.000          26.000
  23627321.549   124162396.206 7     -2675.232    23627321.245    96749901.707 5
     -2084.594                          41.000          27.000
  19322897.350   103110692.210 9      1175.391    19322898.458    80197271.433 8
       914.185                          55.000          50.000
  19415676.284   103715072.354 9      1516.212
                                        53.000
  20347405.256   108730369.194 9     -2367.948    20347406.882    84568127.512 8
     -1841.740                          53.000          48.000
  21053519.748   112543122.778 8     -2849.825    21053522.892    87533547.337 7
     -2216.533                          48.000          40.000
  22577276.343   120857926.479 8      3685.365    22577275.789    94000610.744 7
      2866.400                          48.000          39.000
  23251511.765   124161785.388 6      4458.672    23251514.231    96570280.186 5
      3467.842                          38.000          32.000
  23546141.702   125690896.127 7     -2483.212    23546144.739    97759635.882 6
     -1931.403                          42.000          36.000
  23549564.370   125974289.130 8       579.117    23549563.101    97980040.987 6
       450.415                          45.000          38.000
 18  4  4  7  8 30.0000000  0 15G30G05G07G13G09G28G02R02R12R11R01R03
                                R13R19R18
  20280516.643   106574839.416 9       -28.140    20280520.288    83045338.603 8
       -21.926                          55.000          50.000
  20664824.040   108594379.698 9       819.907    20664825.005    84618998.048 8
       638.891                          53.000          45.000
  21183444.520   111319753.990 9     -1670.351    21183445.485    86742655.610 7
     -1301.575                          53.000          43.000
  22727483.833   119433743.524 8      2762.792    22727485.512    93065263.047 5
      2152.825                          47.000          31.000
  23064256.377   121203475.500 8     -2867.383    23064260.433    94444284.850 6
     -2234.337                          47.000          33.000
  23092810.450   121353547.236 7      2971.031    23092811.880    94561219.751 4
      2315.079                          41.000          25.000
  23642614.698   124242761.235 7     -2682.415    23642614.770    96812523.789 4
     -2090.197                          41.000          26.000
  19316334.809   103075677.369 9      1158.985    19316336.596    80170037.677 8
       901.433                          54.000          50.000
  19407232.402   103669965.445 9      1490.936
                                        53.000
  20360756.740   108801714.750 9     -2388.328    20360758.241    84623618.489 8
     -1857.590                          53.000          48.000
  21069549.923   112628814.539 8     -2862.877    21069553.139    87600196.455 7
     -2226.682                          48.000          40.000
  22556629.599   120747400.381 8      3683.068    22556628.759    93914645.957 7
      2864.610                          48.000          39.000
  23226477.764   124028107.179 7      4453.296    23226479.909    96466308.279 5
      3463.688                          39.000          32.000
  23546389.152   125957297.292 8       553.750    23546386.489    97966825.061 6
       430.709                          45.000          37.000
  23560146.924   125765655.537 7     -2500.684    23560148.764    97817782.044 6
     -1944.968                          41.000          36.000
 18  4  4  7  9  0.0000000  0 15G30G05G07G13G28G09G02R02R12R11R01R03
                                R13R19R18
  20280725.853   106575938.834 9       -45.105    20280729.624    83046195.294 8
       -35.141                          55.000          50.000
  20660195.069   108570053.356 9       801.864    20660195.838    84600042.454 8
       624.828                          53.000          46.000
  21193015.615   111370051.653 9     -1682.757    21193016.723    86781848.585 7
     -1311.240                          52.000          43.000
  22711726.678   119350939.009 8      2757.598    22711727.947    93000740.055 5
      2148.785                          45.000          31.000
  23075871.474   121264535.245 7      2963.078    23075874.422    94491859.765 4
      2308.888                          41.000          26.000
  23080639.233   121289568.440 8     -2872.116    23080643.557    94511370.212 6
     -2238.028                          46.000          34.000
  23657949.161   124323343.909 7     -2689.635    23657948.929    96875315.433 4
     -2095.809                          39.000          25.000
  19309866.419   103041158.713 9      1142.276    19309868.009    80143189.834 8
       888.439                          55.000          50.000
  19398930.436   103625619.462 9      1465.481
                                        53.000
  20374222.585   108873672.211 9     -2408.761    20374223.943    84679585.399 8
     -1873.483                          54.000          47.000
  21085653.629   112714900.130 8     -2876.084    21085657.167    87667151.886 7
     -2236.955                          48.000          40.000
  22535996.577   120636948.266 8      3680.416    22535996.291    93828738.703 7
      2862.555                          48.000          40.000
  23201475.034   123894593.080 7      4447.720    23201478.751    96362463.979 5
      3459.336                          40.000          32.000
  23543355.438   125941070.814 8       528.146    23543352.830    97954204.442 6
       410.783                          45.000          35.000
  23574250.908   125840942.074 7     -2518.304    23574252.963    97876338.207 6
     -1958.688                          42.000          36.000
 18  4  4  7  9 30.0000000  0 15G30G05G07G13G28G09G02R02R12R11R01R03
                                R13R19R18
  20281030.895   106577543.009 9       -61.986    20281034.862    83047445.300 8
       -48.301                          55.000          50.000
  20655668.506   108546266.491 9       783.781    20655669.328    84581507.230 8
       610.740                          53.000          46.000
  21202656.811   111420717.608 9     -1695.094    21202657.973    86821328.543 7
     -1320.858                          52.000          43.000
  22695999.293   119268289.524 8      2752.293    22696000.741    92936337.873 5
      2144.634                          46.000          30.000
  23058977.724   121175757.199 7      2955.142    23058980.262    94422682.054 4
      2302.715                          41.000          26.000
  23097048.464   121375800.875 8     -2876.841    23097052.538    94578564.278 6
     -2241.693                          45.000          34.000
  23673324.240   124404141.055 7     -2696.899    23673323.526    96938274.209 4
     -2101.449                          41.000          25.000
  19303491.073   103007137.964 9      1125.613    19303492.360    80116729.239 8
       875.481                          56.000          50.000
  19390771.458   103582035.150 9      1439.949
                                        54.000
  20387802.078   108946237.472 9     -2429.059    20387803.329    84736025.039 8
     -1889.270                          53.000          47.000
  21101831.242   112801377.941 8     -2889.242    21101834.762    87734412.386 7
     -2247.196                          48.000          40.000
  22515374.796   120526571.568 7      3677.780    22515377.905    93742890.201 7
      2860.492                          44.000          41.000
  23176502.128   123761246.043 6      4441.970    23176504.951    96258749.640 6
      3454.849                          38.000          33.000
  23540464.677   125925609.981 8       502.483    23540461.229    97942179.284 6
       390.824                          45.000          34.000
  23588453.243   125916751.560 7     -2535.749    23588455.083    97935301.075 6
     -1972.261                          43.000          36.000
 18  4  4  7 10  0.0000000  0 15G30G05G07G13G28G09G02R02R12R11R01R03
                                R13R19R18
  20281431.876   106579651.422 9       -78.530    20281436.040    83049088.226 8
       -61.196                          55.000          49.000
  20651244.923   108523020.146 9       766.001    20651245.834    84563393.186 8
       596.879                          54.000          46.000
  21212367.910   111471750.662 9     -1707.039    21212369.358    86861094.538 7
     -1330.160                          51.000          42.000
  22680300.892   119185795.506 8      2747.327    22680302.500    92872056.827 5
      2140.789                          46.000          31.000
  23042129.523   121087216.114 7      2947.511    23042131.256    94353689.018 4
      2296.752                          41.000          26.000
  23113484.463   121462172.341 8     -2881.234    23113488.984    94645866.678 6
     -2245.107                          46.000          33.000
  23688739.525   124485150.116 7     -2703.651    23688738.971    97001398.112 4
     -2106.767                          40.000          25.000
  19297208.843   102973617.229 9      1109.115    19297210.701    80090657.550 8
       862.653                          54.000          50.000
  19382755.218   103539214.039 9      1414.785
                                        53.000
  20401495.360   109019407.441 9     -2448.876    20401496.397    84792935.003 8
     -1904.685                          53.000          48.000
  21118081.868   112888247.176 8     -2902.016    21118085.638    87801977.307 7
     -2257.114                          47.000          40.000
  22494769.543   120416272.873 7      3675.444    22494773.081    93657102.423 7
      2858.674                          44.000          42.000
  23151562.815   123628069.517 6      4436.426    23151566.764    96155167.963 6
      3450.571                          37.000          34.000
  23537718.173   125910915.623 8       477.194    23537713.920    97930750.274 5
       371.116                          45.000          31.000
  23602751.571   125993080.280 7     -2552.735    23602754.394    97994667.832 6
     -1985.465                          43.000          37.000
 18  4  4  7 10 30.0000000  0 15G30G05G07G13G28G09G02R02R12R11R01R03
                                R13R19R18
  20281929.368   106582263.571 9       -95.477    20281933.066    83051123.663 8
       -74.399                          56.000          49.000
  20646924.211   108500315.244 9       747.756    20646925.229    84545701.045 8
       582.667                          54.000          45.000
  21222148.949   111523149.034 9     -1719.386    21222150.200    86901145.202 7
     -1339.785                          53.000          43.000
  22664632.421   119103458.099 8      2741.922    22664634.101    92807897.815 5
      2136.552                          47.000          31.000
  23025326.262   120998914.629 7      2939.334    23025327.692    94284882.673 5
      2290.406                          43.000          27.000
  23129946.836   121548682.287 8     -2885.985    23129950.642    94713276.985 5
     -2248.824                          45.000          32.000
  23704194.872   124566368.013 7     -2710.710    23704195.032    97064684.757 4
     -2112.217                          40.000          24.000
  19291021.247   102940599.458 9      1092.162    19291023.088    80064977.077 8
       849.456                          55.000          49.000
  19374882.269   103497157.269 9      1389.095
                                        53.000
  20415300.610   109093178.722 9     -2468.983    20415301.629    84850312.661 8
     -1920.320                          54.000          47.000
  21134405.649   112975506.334 8     -2915.156    21134409.455    87869845.499 7
     -2267.336                          47.000          40.000
  22474182.302   120306055.020 8      3672.555    22474182.927    93571377.434 7
      2856.433                          47.000          42.000
  23126656.810   123495067.142 7      4430.436    23126657.596    96051721.720 6
      3445.878                          40.000          34.000
  23535114.281   125896988.232 7       451.402    23535111.154    97919917.836 6
       351.091                          44.000          33.000
  23617147.695   126069924.400 7     -2569.982    23617149.732    98054435.460 6
     -1998.869                          43.000          36.000
 18  4  4  7 11  0.0000000  0 15G30G05G07G13G28G09G02R02R12R11R01R03
                                R13R19R18
  20282522.047   106585378.423 9      -112.180    20282525.853    83053550.827 8
       -87.412                          56.000          50.000
  20642706.675   108478152.869 9       729.706    20642707.872    84528431.656 8
       568.602                          54.000          46.000
  21231999.015   111574910.433 9     -1731.402    21232000.070    86941478.755 7
     -1349.148                          52.000          43.000
  22648994.274   119021277.642 8      2736.766    22648995.615    92743861.111 5
      2132.567                          45.000          31.000
  23008569.068   120910855.764 7      2931.204    23008570.890    94216265.389 5
      2284.059                          42.000          27.000
  23146435.531   121635329.806 8     -2890.546    23146439.140    94780794.497 6
     -2252.377                          45.000          33.000
  23719689.280   124647791.691 6     -2717.527    23719689.691    97128131.729 4
     -2117.562                          38.000          24.000
  19284928.822   102908086.122 9      1075.323    19284930.126    80039688.918 8
       836.364                          55.000          50.000
  19367151.951   103455865.430 9      1363.618
                                        53.000
  20429217.345   109167547.594 9     -2488.856    20429218.881    84908155.111 8
     -1935.772                          54.000          48.000
  21150802.157   113063154.524 8     -2928.071    21150806.035    87938016.276 7
     -2277.374                          48.000          40.000
  22453608.838   120195919.903 8      3669.824    22453608.070    93485716.773 7
      2854.312                          49.000          40.000
  23101783.523   123362241.212 7      4424.550    23101784.166    95948412.670 6
      3441.326                          40.000          33.000
  23532653.377   125883828.058 7       425.908    23532652.037    97909682.124 6
       331.270                          42.000          35.000
  23631638.526   126147279.795 7     -2586.980    23631640.902    98114600.758 6
     -2012.093                          42.000          36.000
 18  4  4  7 11 30.0000000  0 15G30G05G07G13G28G09G02R02R12R11R01R03
                                R13R19R18
  20283210.362   106588995.671 9      -129.029    20283214.186    83056369.460 8
      -100.541                          56.000          49.000
  20638593.190   108456534.764 9       711.444    20638594.101    84511586.370 8
       554.380                          54.000          46.000
  21241918.003   111627034.110 9     -1743.544    21241918.843    86982094.594 7
     -1358.601                          53.000          43.000
  22633385.915   118939255.284 8      2731.366    22633387.255    92679947.599 5
      2128.334                          46.000          31.000
  22991858.851   120823042.392 7      2922.953    22991860.352    94147839.378 5
      2277.647                          42.000          27.000
  23162950.136   121722114.580 8     -2895.193    23162954.799    94848418.965 6
     -2255.986                          45.000          33.000
  23735222.929   124729418.615 6     -2724.311    23735222.750    97191737.087 4
     -2122.862                          38.000          23.000
  19278930.870   102876079.991 9      1058.388    19278932.353    80014795.246 8
       823.187                          55.000          50.000
  19359565.908   103415340.364 9      1337.965
                                        53.000
  20443245.368   109242511.097 9     -2508.740    20443247.351    84966460.034 8
     -1951.248                          53.000          47.000
  21167270.838   113151190.828 8     -2941.060    21167274.698    88006488.929 7
     -2287.507                          48.000          40.000
  22433050.009   120085869.551 8      3666.786    22433049.151    93400122.005 7
      2851.943                          47.000          39.000
  23076941.686   123229595.670 6      4418.320    23076945.259    95845243.941 6
      3436.499                          38.000          33.000
  23530336.354   125871435.790 7       400.204    23530335.943    97900043.686 6
       311.275                          40.000          36.000
  23646225.277   126225142.886 7     -2603.881    23646226.850    98175160.889 6
     -2025.233                          43.000          36.000
 18  4  4  7 12  0.0000000  0 15G30G05G07G13G28G09G02R02R12R11R01R03
                                R13R19R18
  20283994.276   106593113.958 9      -145.698    20283997.886    83059578.521 8
      -113.533                          56.000          50.000
  20634582.827   108435461.311 9       693.291    20634583.863    84495165.495 8
       540.219                          54.000          46.000
  21251905.232   111679517.392 9     -1755.488    21251906.304    87022990.649 7
     -1367.908                          53.000          43.000
  22617807.969   118857391.494 8      2726.066    22617809.273    92616157.640 5
      2124.217                          46.000          32.000
  22975195.344   120735476.963 7      2914.617    22975197.113    94079606.602 4
      2271.146                          42.000          26.000
  23179490.132   121809035.419 8     -2899.696    23179494.867    94916149.440 5
     -2259.475                          45.000          32.000
  23750794.049   124811245.339 7     -2730.950    23750793.334    97255498.132 4
     -2128.035                          40.000          23.000
  19273027.623   102844582.428 9      1041.266    19273029.625    79990297.141 8
       809.871                          54.000          50.000
  19352122.852   103375581.923 9      1312.413
                                        53.000
  20457384.589   109318064.985 9     -2528.382    20457386.144    85025224.146 8
     -1966.515                          53.000          47.000
  21183812.318   113239613.257 8     -2953.925    21183815.803    88075261.901 7
     -2297.503                          47.000          39.000
  22412506.047   119975906.474 7      3663.859    22412507.780    93314595.186 7
      2849.656                          44.000          40.000
  23052137.784   123097133.118 7      4412.246    23052138.820    95742217.605 6
      3431.749                          39.000          34.000
  23528161.891   125859811.565 6       374.624    23528163.302    97891002.632 6
       291.360                          38.000          37.000
  23660905.823   126303509.135 7     -2620.622    23660908.575    98236112.379 6
     -2038.268                          43.000          36.000
 18  4  4  7 12 30.0000000  0 15G30G05G07G13G28G09G02R02R12R11R01R03
                                R13R19R18
  20284873.343   106597733.050 9      -162.362    20284876.988    83063177.811 8
      -126.511                          56.000          50.000
  20630676.712   108414934.160 9       675.077    20630677.731    84479170.303 8
       526.034                          53.000          46.000
  21261960.667   111732359.061 9     -1767.390    21261961.686    87064165.964 7
     -1377.192                          52.000          43.000
  22602260.454   118775687.500 8      2720.766    22602261.633    92552492.190 5
      2120.088                          47.000          32.000
  22958579.922   120648162.882 7      2906.178    22958581.798    94011569.671 4
      2264.557                          41.000          26.000
  23196056.414   121896092.240 7     -2904.210    23196061.578    94983985.876 5
     -2263.037                          44.000          31.000
  23766402.444   124893269.579 7     -2737.408    23766401.604    97319413.065 4
     -2133.037                          39.000          23.000
  19267221.031   102813596.425 9      1024.256    19267222.907    79966196.919 8
       796.640                          54.000          50.000
  19344823.910   103336591.993 9      1286.806
                                        53.000
  20471633.813   109394206.131 9     -2547.851    20471634.778    85084445.040 8
     -1981.669                          54.000          47.000
  21200425.828   113328421.420 8     -2966.727    21200428.937    88144334.887 7
     -2307.442                          48.000          39.000
  22391981.455   119866033.344 8      3660.896    22391983.259    93229138.359 7
      2847.362                          46.000          42.000
  23027365.421   122964857.047 7      4406.017    23027367.637    95639336.267 6
      3426.900                          40.000          34.000
  23526130.397   125848956.340 6       348.999    23526133.542    97882559.746 6
       271.420                          35.000          36.000
  23675679.860   126382375.020 7     -2637.164    23675682.004    98297452.497 6
     -2051.116                          43.000          36.000
 18  4  4  7 13  0.0000000  0 15G30G05G07G13G28G09G02R02R12R11R01R03
                                R13R19R18
  20285847.580   106602852.101 9      -178.902    20285851.011    83067166.678 8
      -139.398                          57.000          50.000
