     2.11           OBSERVATION DATA    M (MIXED)           RINEX VERSION / TYPE
TPP                 Reference Data Shop 05-APR-18 05:27     PGM / RUN BY / DATE 
STCX                                                        MARKER NAME         
                                                            MARKER NUMBER       
VRSNet              swisstopo                               OBSERVER / AGENCY   
5433R49244          TRIMBLE NETR9                           REC # / TYPE / VERS 
53593               TRM59800.00     NONE                    ANT # / TYPE        
  4344778.5750   495114.8210  4629118.6960                  APPROX POSITION XYZ 
        0.0000        0.0000        0.0000                  ANTENNA: DELTA H/E/N
     1     1     0                                          WAVELENGTH FACT L1/2
    14    C1    P1    L1    D1    S1    C2    P2    L2    D2# / TYPES OF OBSERV 
          S2    C5    L5    D5    S5                        # / TYPES OF OBSERV 
    30.000                                                  INTERVAL            
     0                                                      RCV CLOCK OFFS APPL 
    18                                                      LEAP SECONDS        
  2018    04    04    07    00   00.0000000     GPS         TIME OF FIRST OBS   
                                                            END OF HEADER       
 18 04 04  7  0  0.0000000  0 15G02G05G07G09G13G28G30R01R02R03R11R12 0.000000000
                                R13R18R19                   
  23392596.680                   122928900.72415     -2539.867          41.100  
                  23392600.152    95788760.65016                        24.500  
                                                                
  20765762.508                   109124825.42517      1127.004          51.300  
                  20765766.988    85032347.85318                        38.500  
                                                                
  21028278.156                   110504357.39117     -1452.945          51.200  
                  21028282.918    86107311.26218                        37.800  
                                                                
  22779119.422                   119705085.98616     -2777.863          45.200  
                  22779126.680    93276708.47317                        29.300  
                                                                
  23011400.039                   120925742.93416      2846.473          43.200  
                  23011404.738    94227868.55316                        21.500  
                                                                
  23373437.781                   122828225.36515      3086.594          41.200  
                  23373442.602    95710355.78416                        18.300  
                                                                
  20288856.500                   106618669.85418       259.262          53.900  
                  20288863.313    83079517.69319                        43.600  
                                                                
  20795829.617    20795828.895   111165639.64817     -2626.437          45.300  
                  20795834.805    86462227.69118                        34.200  
                                                                
  19444845.727    19444844.969   103761451.33019      1441.754          53.300  
                  19444848.660    80703347.58119                        41.100  
                                                                
  22923824.063    22923822.777   122713017.42116      3718.063          43.400  
                  22923825.117    95443412.64217                        32.200  
                                                                
  20147706.367    20147706.102   107663246.07418     -2031.902          51.200  
                  20147709.059    83737979.62119                        41.200  
                                                                
  19564748.148    19564746.906   104511349.14018      1908.125          51.900  
                                                                                
                                                                
  23651170.148    23651167.535   126295925.52312      4527.730          35.000  
                                                                                
                                                                
  23350953.406    23350952.449   124648957.86716     -2183.879          41.600  
                                                                                
                                                                
  23631165.227    23631164.418   126410804.71914       976.352          37.900  
                                                                                
                                                                
 18 04 04  7  0 30.0000000  0 15G02G05G07G09G13G28G30R01R02R03R11R12 0.000000000
                                R13R18R19                   
  23407120.133                   123005223.968 5     -2548.402          40.600  
                  23407123.457    95848233.299 6     -1985.761          21.800  
                                                                
  20759377.078                   109091269.565 7      1110.035          51.300  
                  20759381.695    85006200.420 8       865.116          38.400  
                                                                
  21036609.617                   110548139.183 7     -1465.887          51.500  
                  21036614.063    86141426.923 8     -1142.181          37.100  
                                                                
  22794991.398                   119788496.907 6     -2782.812          45.100  
                  22794999.539    93341703.961 7     -2168.417          28.900  
                                                                
  22995161.570                   120840414.160 6      2841.973          42.100  
                  22995166.707    94161378.582 6      2214.571          20.600  
                                                                
  23355834.102                   122735715.863 5      3080.738          39.800  
                  23355838.410    95638270.494 6      2400.503          19.600  
                                                                
  20287424.313                   106611144.984 8       242.406          53.900  
                  20287430.926    83073654.161 9       188.998          43.200  
                                                                
  20810608.031    20810606.793   111244633.457 7     -2639.953          46.300  
                  20810612.344    86523667.331 8     -2053.189          33.400  
                                                                
  19436782.828    19436781.813   103718424.784 9      1426.691          53.600  
                  19436785.336    80669882.484 9      1109.765          41.200  
                                                                
  22902989.898    22902988.801   122601492.442 6      3717.043          43.700  
                  22902991.887    95356671.11117      2890.844          32.200  
                                                                
  20159175.586    20159174.801   107724530.522 8     -2053.812          50.100  
                  20159177.496    83785645.290 9     -1597.185          41.500  
                                                                
  19554100.320    19554099.242   104454471.443 8      1883.750          51.900  
                                                                                
                                                                
  23625741.969    23625739.637   126160146.327 2      4524.273          35.000  
                                                                                
                                                                
  23363281.422    23363280.629   124714766.150 5     -2203.301          40.400  
                                                                                
                                                                
  23625760.289    23625757.980   126381886.189 3       951.621          36.500  
                                                                                
                                                                
 18 04 04  7  1  0.0000000  0 15G02G05G07G09G13G28G30R01R02R03R11R12 0.000000000
                                R13R18R19                   
  23421694.398                   123081810.526 5     -2557.195          40.100  
                  23421698.070    95907911.119 6     -1992.542          22.200  
                                                                
  20753089.797                   109058229.315 7      1092.742          51.500  
                  20753094.184    84980454.768 8       851.700          38.900  
                                                                
  21045016.438                   110592316.867 8     -1479.066          53.500  
                  21045020.613    86175851.085 8     -1152.430          38.100  
                                                                
  22810893.672                   119872059.745 6     -2787.906          45.700  
                  22810900.602    93406817.833 7     -2172.356          29.600  
                                                                
  22978951.961                   120755225.750 6      2837.281          44.300  
                  22978956.133    94094998.041 6      2210.901          22.000  
                                                                
  23338264.922                   122643391.993 5      3074.332          41.300  
                  23338269.113    95566329.847 6      2395.637          18.300  
                                                                
  20286090.086                   106604133.706 8       225.191          54.700  
                  20286097.063    83068190.823 9       175.658          43.400  
                                                                
  20825463.156    20825461.754   111324039.322 7     -2653.656          48.400  
                  20825466.543    86585427.405 7     -2063.856          33.000  
                                                                
  19428805.859    19428804.914   103675857.704 9      1411.324          53.800  
                  19428808.469    80636774.754 8      1097.866          40.900  
                                                                
  22882163.039    22882162.035   122490006.370 6      3715.641          41.600  
                  22882164.734    95269959.63417      2889.900          30.000  
                                                                
  20170768.219    20170767.695   107786478.191 8     -2075.965          52.900  
                  20170769.918    83833826.805 9     -1614.355          41.200  
                                                                
  19543590.352    19543589.555   104398331.259 8      1859.176          52.300  
                                                                                
                                                                
  23600337.508    23600334.918   126024481.828 3      4520.145          35.800  
                                                                                
                                                                
  23375717.711    23375718.348   124781160.043 6     -2222.801          41.400  
                                                                                
                                                                
  23620494.492    23620492.371   126353717.248 4       926.508          37.500  
                                                                                
                                                                
 18 04 04  7  1 30.0000000  0 15G02G05G07G09G13G28G30R01R02R03R11R12 0.000000000
                                R13R18R19                   
  23436318.367                   123158657.285 5     -2565.926          40.600  
                  23436321.563    95967791.650 6     -1999.244          22.000  
                                                                
  20746900.703                   109025705.630 7      1075.402          51.300  
                  20746905.059    84955111.633 8       838.290          38.400  
                                                                
  21053498.383                   110636888.650 8     -1492.383          53.400  
                  21053502.480    86210582.343 8     -1162.621          37.800  
                                                                
  22826823.234                   119955773.583 6     -2793.102          45.600  
                  22826830.809    93472049.360 7     -2176.240          28.900  
                                                                
  22962768.328                   120670178.374 6      2832.500          43.700  
                  22962771.891    94028727.365 6      2207.251          21.500  
                                                                
  23320731.633                   122551256.947 5      3067.672          40.400  
                  23320736.523    95494536.369 5      2390.691          17.800  
                                                                
  20284853.438                   106597635.317 8       207.902          55.500  
                  20284860.242    83063127.148 9       162.365          43.200  
                                                                
  20840394.141    20840393.863   111403856.005 7     -2667.492          49.000  
                  20840397.777    86647506.999 7     -2074.459          32.700  
                                                                
  19420915.641    19420914.297   103633751.975 9      1395.711          53.400  
                  19420917.402    80604025.840 8      1085.852          40.900  
                                                                
  22861344.250    22861343.953   122378560.786 6      3714.164          43.600  
                  22861345.590    95183279.79217      2888.835          31.000  
                                                                
  20182484.484    20182483.816   107849085.787 9     -2097.992          53.200  
                  20182485.922    83882521.599 8     -1631.376          40.800  
                                                                
  19533219.305    19533218.250   104342930.359 8      1834.195          51.800  
                                                                                
                                                                
  23574952.648    23574950.762   125888935.052 2      4515.934          34.600  
                                                                                
                                                                
  23388264.742    23388264.465   124848135.771 5     -2242.316          39.800  
                                                                                
                                                                
  23615368.305    23615367.355   126326299.048 3       901.305          35.700  
                                                                                
                                                                
 18 04 04  7  2  0.0000000  0 15G02G05G07G09G13G28G30R01R02R03R11R12 0.000000000
                                R13R18R19                   
  23450990.273                   123235761.628 6     -2574.512          42.200  
                  23450993.176    96027872.937 6     -2005.978          21.700  
                                                                
  20740810.531                   108993700.699 8      1058.113          52.400  
                  20740815.211    84930172.724 8       824.734          38.800  
                                                                
  21062055.016                   110681852.983 8     -1505.391          53.500  
                  21062059.445    86245619.508 8     -1172.869          38.000  
                                                                
  22842782.773                   120039638.021 6     -2798.039          46.600  
                  22842789.969    93537398.245 7     -2180.232          29.600  
                                                                
  22946610.461                   120585273.119 6      2827.699          43.700  
                  22946615.547    93962567.452 6      2203.499          21.100  
                                                                
  23303235.398                   122459313.989 5      3061.500          39.900  
                  23303240.113    95422892.555 5      2385.659          17.400  
                                                                
  20283714.492                   106591649.641 8       190.961          55.000  
                  20283721.160    83058462.990 9       149.003          43.300  
                                                                
  20855402.656    20855401.301   111484083.042 7     -2680.996          47.900  
                  20855406.227    86709905.808 8     -2085.176          34.000  
                                                                
  19413111.563    19413110.781   103592110.267 9      1380.223          54.300  
                  19413113.902    80571637.866 8      1073.691          40.900  
                                                                
  22840532.133    22840531.762   122267157.847 6      3712.758          42.000  
                                                                                
                                                                
  20194323.070    20194322.922   107912350.134 9     -2119.738          53.600  
                  20194324.762    83931727.212 8     -1648.423          40.300  
                                                                
  19522986.328    19522985.367   104288270.368 8      1809.613          52.300  
                                                                                
                                                                
  23549593.047    23549591.043   125753509.769 2      4512.285          34.800  
                                                                                
                                                                
  23400921.938    23400920.555   124915690.139 6     -2261.328          42.000  
                                                                                
                                                                
  23610382.258    23610380.816   126299633.037 3       876.543          36.200  
                                                                                
                                                                
 18 04 04  7  2 30.0000000  0 15G02G05G07G09G13G28G30R01R02R03R11R12 0.000000000
                                R13R18R19                   
  23465711.766                   123313121.031 5     -2582.969          41.600  
                  23465714.953    96088152.973 6     -2012.558          22.800  
                                                                
  20734819.164                   108962216.091 8      1040.668          52.400  
                  20734823.676    84905639.261 8       811.202          39.800  
                                                                
  21070685.461                   110727208.273 8     -1518.473          53.700  
                  21070690.078    86280961.284 8     -1182.996          37.600  
                                                                
  22858769.195                   120123652.351 6     -2803.027          45.000  
                  22858777.238    93602863.935 7     -2184.114          29.300  
                                                                
  22930481.203                   120500510.767 6      2822.902          44.700  
                  22930485.418    93896518.858 6      2199.813          21.500  
                                                                
  23285777.000                   122367565.396 5      3054.941          40.400  
                  23285782.480    95351400.187 6      2380.538          19.000  
                                                                
  20282672.938                   106586176.204 8       173.820          55.700  
                  20282679.793    83054197.974 9       135.703          43.400  
                                                                
  20870486.328    20870485.277   111564719.024 7     -2694.695          46.700  
                  20870491.031    86772622.612 8     -2095.743          33.800  
                                                                
  19405395.430    19405394.344   103550934.878 9      1364.641          53.900  
                  19405397.434    80539612.551 9      1061.615          41.300  
                                                                
  22819729.695    22819729.277   122155799.690 6      3710.965          43.300  
                  22819732.207    95010019.17417      2886.466          32.700  
                                                                
  20206284.531    20206283.961   107976268.018 9     -2141.473          53.300  
                  20206286.234    83981441.102 8     -1665.331          40.600  
                                                                
  19512893.328    19512892.250   104234353.204 8      1784.754          51.600  
                                                                                
                                                                
  23524254.336    23524253.250   125618208.681 2      4507.945          33.700  
                                                                                
                                                                
  23413685.773    23413683.711   124983819.291 6     -2280.535          42.900  
                                                                                
                                                                
  23605540.555    23605537.238   126273720.537 4       851.059          38.400  
                                                                                
                                                                
 18 04 04  7  3  0.0000000  0 15G02G05G07G09G13G28G30R01R02R03R11R12 0.000000000
                                R13R18R19                   
  23480481.266                   123390732.300 5     -2591.090          41.600  
                  23480484.430    96148629.240 6     -2019.022          22.800  
                                                                
  20728927.164                   108931252.752 8      1023.418          52.700  
                  20728931.395    84881511.979 8       797.665          39.600  
                                                                
  21079390.203                   110772952.993 8     -1531.270          53.900  
                  21079394.836    86316606.509 8     -1193.076          37.500  
                                                                
  22874785.523                   120207815.810 6     -2807.852          45.000  
                  22874793.285    93668445.821 7     -2187.934          30.000  
                                                                
  22914379.016                   120415891.323 6      2818.340          45.000  
                  22914383.145    93830581.656 6      2196.130          22.200  
                                                                
  23268354.977                   122276014.496 5      3048.285          40.500  
                  23268360.547    95280061.859 6      2375.425          20.100  
                                                                
  20281728.953                   106581214.424 8       156.895          55.000  
                  20281735.723    83050331.658 9       122.440          43.600  
                                                                
  20885646.563    20885645.980   111645763.297 7     -2708.270          46.500  
                  20885651.688    86835656.995 7     -2106.248          32.900  
                                                                
  19397767.180    19397765.789   103510227.875 9      1349.141          53.700  
                  19397769.281    80507951.541 9      1049.477          41.100  
                                                                
  22798935.719    22798935.277   122044488.307 6      3709.688          43.300  
                  22798938.102    94923443.66017      2885.259          32.800  
                                                                
  20218367.891    20218367.199   108040836.245 8     -2163.012          53.000  
                  20218369.551    84031660.839 8     -1682.146          40.200  
                                                                
  19502938.813    19502937.969   104181180.043 8      1760.086          52.000  
                                                                                
                                                                
  23498941.094    23498938.715   125483034.546 3      4503.742          35.300  
                                                                                
                                                                
  23426554.953    23426553.195   125052519.415 6     -2299.434          42.300  
                                                                                
                                                                
  23600835.367    23600834.441   126248562.310 4       825.988          37.400  
                                                                                
                                                                
 18 04 04  7  3 30.0000000  0 15G02G05G07G09G13G28G30R01R02R03R11R12 0.000000000
                                R13R18R19                   
  23495297.492                   123468592.494 6     -2599.590          42.800  
                  23495300.348    96209299.504 6     -2025.470          24.900  
                                                                
  20723134.367                   108900811.813 8      1006.008          52.300  
                  20723139.203    84857791.765 8       784.081          39.600  
                                                                
  21088168.984                   110819085.190 8     -1544.090          53.600  
                  21088173.559    86352553.676 8     -1203.091          37.100  
                                                                
  22890829.125                   120292127.598 6     -2812.820          44.300  
                  22890837.516    93734143.282 7     -2191.792          29.200  
                                                                
  22898303.797                   120331415.820 6      2813.438          44.200  
                  22898307.977    93764756.625 6      2192.347          22.200  
                                                                
  23250971.469                   122184664.114 5      3041.660          40.700  
                  23250977.277    95208879.787 6      2370.183          21.300  
                                                                
  20280881.852                   106576763.690 8       139.941          55.300  
                  20280888.895    83046863.558 9       109.185          43.700  
                                                                
  20900885.203    20900883.520   111727214.464 7     -2721.828          46.400  
                  20900888.598    86899007.849 7     -2116.761          32.900  
                                                                
  19390226.602    19390225.563   103469991.884 9      1333.371          53.600  
                  19390229.129    80476656.860 9      1037.251          41.400  
                                                                
  22778151.563    22778150.418   121933225.346 6      3708.004          43.000  
                  22778153.789    94836905.80517      2884.028          32.700  
                                                                
  20230571.789    20230570.793   108106051.398 9     -2184.477          53.200  
                  20230573.988    84082383.723 8     -1698.823          40.200  
                                                                
  19493124.813    19493123.758   104128752.498 8      1735.227          51.800  
                                                                                
                                                                
  23473651.047    23473648.621   125347991.289 2      4499.145          34.900  
                                                                                
                                                                
  23439530.297    23439529.527   125121787.120 6     -2318.332          42.700  
                                                                                
                                                                
  23596275.836    23596273.809   126224159.221 5       800.930          39.200  
                                                                                
                                                                
 18 04 04  7  4  0.0000000  0 15G02G05G07G09G13G28G30R01R02R03R11R12 0.000000000
                                R13R18R19                   
  23510161.109                   123546699.020 6     -2607.633          43.200  
                  23510163.352    96270161.678 6     -2031.798          22.900  
                                                                
  20717441.750                   108870895.794 8       988.391          52.600  
                  20717446.340    84834480.572 8       770.464          39.800  
                                                                
  21097020.969                   110865603.525 8     -1557.086          54.100  
                  21097025.594    86388801.718 8     -1213.102          38.100  
                                                                
  22906901.617                   120376587.387 6     -2817.762          45.100  
                  22906909.371    93799956.064 7     -2195.588          29.100  
                                                                
  22882255.563                   120247085.535 6      2808.520          44.500  
                  22882260.340    93699044.736 6      2188.551          22.600  
                                                                
  23233627.438                   122093517.111 5      3034.797          40.700  
                  23233632.645    95137856.186 6      2364.897          20.100  
                                                                
  20280131.914                   106572823.837 8       122.727          54.500  
                  20280139.164    83043793.535 9        95.940          43.900  
                                                                
  20916197.906    20916197.137   111809072.062 7     -2735.348          47.800  
                  20916201.938    86962674.84317     -2127.299          32.900  
                                                                
  19382775.141    19382774.242   103430228.923 9      1317.465          54.400  
                  19382777.332    80445730.111 8      1024.968          40.900  
                                                                
  22757375.227    22757375.492   121822013.550 6      3706.211          43.200  
                  22757378.711    94750407.752 8      2882.632          33.800  
                                                                
  20242896.727    20242895.895   108171910.417 8     -2206.047          53.000  
                  20242898.293    84133607.379 8     -1715.486          40.200  
                                                                
  19483450.539    19483449.297   104077072.487 8      1710.129          52.100  
                                                                                
                                                                
  23448385.469    23448385.109   125213081.481 2      4494.539          34.900  
                                                                                
                                                                
  23452611.617    23452611.012   125191618.781 6     -2337.211          41.600  
                                                                                
                                                                
  23591855.445    23591853.418   126200512.897 5       775.535          40.700  
                                                                                
                                                                
 18 04 04  7  4 30.0000000  0 15G02G05G07G09G13G28G30R01R02R03R11R12 0.000000000
                                R13R18R19                   
  23525070.148                   123625048.750 6     -2615.676          42.100  
                  23525073.188    96331213.356 6     -2038.068          22.800  
                                                                
  20711848.453                   108841505.170 8       970.949          52.700  
                  20711853.395    84811578.785 8       756.788          39.300  
                                                                
  21105946.313                   110912506.110 8     -1569.770          54.500  
                  21105950.926    86425349.181 8     -1223.069          37.700  
                                                                
  22923002.133                   120461194.172 6     -2822.566          45.000  
                  22923009.559    93865883.391 7     -2199.415          28.600  
                                                                
  22866236.508                   120162901.075 6      2803.738          44.300  
                  22866240.754    93633446.460 6      2184.782          21.700  
                                                                
  23216321.758                   122002576.100 5      3028.016          40.400  
                  23216326.871    95066993.096 6      2359.463          20.900  
                                                                
  20279479.242                   106569393.912 8       105.871          54.500  
                  20279486.449    83041120.871 9        82.696          43.700  
                                                                
  20931587.070    20931586.512   111891334.529 7     -2748.789          48.800  
                  20931590.664    87026656.775 7     -2137.786          32.800  
                                                                
  19375412.797    19375411.758   103390941.096 9      1301.664          54.800  
                  19375414.746    80415172.907 9      1012.594          41.100  
                                                                
  22736610.617    22736610.578   121710854.633 6      3704.328          43.200  
                  22736613.508    94663950.839 8      2881.210          33.700  
                                                                
  20255340.609    20255340.438   108238409.760 9     -2227.277          53.400  
                  20255342.645    84185329.090 8     -1732.044          39.700  
                                                                
  19473915.508    19473914.992   104026141.148 8      1685.238          51.900  
                                                                                
                                                                
  23423148.289    23423145.582   125078308.522 2      4490.012          34.700  
                                                                                
                                                                
  23465798.227    23465797.387   125262010.308 5     -2355.590          40.500  
                  23465801.980    97425928.58817                        31.600  
                                                                
  23587577.250    23587574.848   126177623.768 6       750.383          41.400  
                                                                                
                                                                
 18 04 04  7  5  0.0000000  0 15G02G05G07G09G13G28G30R01R02R03R11R12 0.000000000
                                R13R18R19                   
  23540025.781                   123703638.798 6     -2623.711          42.600  
                  23540028.211    96392452.312 6     -2044.278          22.500  
                                                                
  20706356.258                   108812641.660 7       953.297          52.000  
                  20706360.605    84789087.738 8       743.094          39.600  
                                                                
  21114944.422                   110959791.440 8     -1582.562          53.600  
                  21114948.785    86462194.886 8     -1232.961          37.900  
                                                                
  22939129.992                   120545947.323 6     -2827.602          44.600  
                  22939137.395    93931924.764 7     -2203.181          27.600  
                                                                
  22850244.242                   120078862.929 6      2798.824          43.400  
                  22850249.043    93567962.212 6      2180.984          22.500  
                                                                
  23199055.852                   121911844.535 5      3020.922          39.700  
                  23199061.957    94996293.184 6      2354.075          20.600  
                                                                
  20278923.281                   106566473.547 8        88.805          53.900  
                  20278930.512    83038845.252 9        69.503          43.700  
                                                                
  20947051.836    20947050.574   111974001.043 7     -2762.359          47.200  
                  20947055.023    87090952.896 7     -2148.234          32.600  
                                                                
  19368140.164    19368138.984   103352130.709 9      1285.742          54.600  
                  19368141.902    80384987.063 9      1000.259          41.400  
                                                                
  22715855.297    22715854.738   121599750.480 6      3702.449          43.900  
                  22715857.352    94577536.550 7      2879.814          32.800  
                                                                
  20267904.445    20267904.109   108305546.244 9     -2248.445          53.400  
                  20267906.352    84237546.355 8     -1748.489          39.800  
                                                                
  19464521.945    19464520.727   103975959.760 8      1660.141          52.700  
                                                                                
                                                                
  23397936.125    23397934.379   124943675.450 3      4485.238          35.200  
                                                                                
                                                                
  23479089.281    23479087.594   125332958.135 4     -2374.141          38.600  
                  23479092.652    97481109.70317     -1846.232          31.700  
                                                                
  23583439.664    23583437.660   126155492.966 5       725.027          40.900  
                                                                                
                                                                
 18 04 04  7  5 30.0000000  0 15G02G05G07G09G13G28G30R01R02R03R11R12 0.000000000
                                R13R18R19                   
  23555024.883                   123782466.737 5     -2631.555          41.100  
                  23555029.059    96453876.641 6     -2050.462          21.300  
                                                                
  20700963.961                   108784306.563 7       935.578          51.900  
                  20700968.645    84767008.427 8       729.322          39.400  
                                                                
  21124015.148                   111007457.860 8     -1595.273          54.200  
                  21124019.820    86499337.543 8     -1242.874          37.900  
                                                                
  22955285.414                   120630846.376 6     -2832.441          45.000  
                  22955292.859    93998079.844 7     -2206.997          27.500  
                                                                
  22834279.398                   119994971.516 6      2793.914          43.300  
                  22834284.852    93502592.281 6      2177.140          21.500  
                                                                
  23181829.820                   121821325.149 5      3013.793          40.300  
                  23181836.305    94925758.608 6      2348.466          21.500  
                                                                
  20278464.953                   106564062.291 8        71.836          55.300  
                  20278471.996    83036966.347 9        56.237          43.700  
                                                                
  20962591.969    20962590.191   112057070.629 7     -2775.812          47.200  
                  20962595.156    87155562.53017     -2158.660          32.100  
                                                                
  19360956.734    19360955.602   103313800.265 9      1269.551          54.300  
                  19360958.559    80355174.505 9       987.700          41.400  
                                                                
  22695111.164    22695110.820   121488703.879 6      3700.387          44.900  
                  22695112.031    94491166.957 7      2878.226          31.500  
                                                                
  20280587.117    20280586.594   108373316.605 9     -2269.590          53.100  
                  20280588.547    84290256.645 8     -1764.944          39.800  
                                                                
  19455268.359    19455267.281   103926530.240 8      1635.055          52.500  
                                                                                
                                                                
  23372750.555    23372748.785   124809185.548 3      4480.426          36.000  
                                                                                
                                                                
  23492483.148    23492481.789   125404458.617 4     -2392.590          39.000  
                  23492487.457    97536721.18517     -1860.600          31.500  
                                                                
  23579441.805    23579441.867   126134121.746 5       699.617          40.000  
                                                                                
                                                                
 18 04 04  7  6  0.0000000  0 15G02G05G07G09G13G28G30R01R02R03R11R12 0.000000000
                                R13R18R19                   
  23570070.203                   123861529.546 6     -2639.270          42.600  
                  23570074.324    96515483.994 6     -2056.531          22.200  
                                                                
  20695673.039                   108756501.430 8       918.070          53.000  
                  20695677.434    84745342.082 8       715.526          38.800  
                                                                
  21133158.102                   111055503.692 8     -1607.758          54.800  
                  21133162.332    86536775.842 8     -1252.701          38.100  
                                                                
  22971469.031                   120715890.641 6     -2837.109          43.800  
                  22971476.254    94064348.074 7     -2210.790          26.300  
                                                                
  22818343.805                   119911228.644 6      2788.984          43.700  
                  22818348.980    93437338.094 6      2173.243          21.500  
                                                                
  23164646.086                   121731021.087 5      3006.668          40.600  
                  23164651.859    94855391.811 6      2342.825          20.600  
                                                                
  20278102.781                   106562159.570 8        55.039          54.900  
                  20278109.750    83035483.713 9        43.014          43.700  
                                                                
  20978206.531    20978205.199   112140542.159 7     -2788.957          46.300  
                  20978210.445    87220484.81017     -2169.131          32.200  
                                                                
  19353863.773    19353863.203   103275952.141 9      1253.574          54.600  
                  19353865.922    80325737.037 8       975.167          41.000  
                                                                
  22674377.852    22674377.105   121377716.468 6      3698.547          44.100  
                  22674379.910    94404843.441 8      2876.593          33.600  
                                                                
  20293387.352    20293386.684   108441717.585 8     -2290.473          53.000  
                  20293388.727    84343457.396 8     -1781.234          39.700  
                                                                
  19446156.523    19446155.023   103877854.146 8      1609.957          52.200  
                                                                                
                                                                
  23347593.133    23347590.262   124674842.360 3      4475.844          36.100  
                                                                                
                                                                
  23505981.383    23505979.859   125476508.006 5     -2410.703          39.300  
                  23505985.008    97592759.59217     -1874.828          31.900  
                                                                
  23575589.820    23575587.699   126113510.804 5       674.461          39.700  
                                                                                
                                                                
 18 04 04  7  6 30.0000000  0 15G02G05G07G09G13G28G30R01R02R03R11R12 0.000000000
                                R13R18R19                   
  23585159.164                   123940824.248 6     -2647.008          42.200  
                  23585163.488    96577272.051 6     -2062.535          22.300  
                                                                
  20690482.844                   108729227.582 8       900.297          52.300  
                  20690487.270    84724089.732 8       701.708          39.300  
                                                                
  21142372.977                   111103927.421 8     -1620.375          55.000  
                  21142377.129    86574508.605 8     -1262.518          38.100  
                                                                
  22987679.828                   120801079.427 6     -2841.984          43.500  
                  22987686.930    94130728.894 7     -2214.523          26.500  
                                                                
  22802437.117                   119827634.576 6      2784.004          43.600  
                  22802441.492    93372199.879 6      2169.346          21.500  
                                                                
  23147503.078                   121640934.797 5      2999.266          41.200  
                  23147509.508    94785194.737 6      2337.112          21.500  
                                                                
  20277837.180                   106560764.776 8        38.031          56.100  
                  20277844.289    83034396.857 9        29.829          43.600  
                                                                
  20993896.430    20993895.965   112224415.033 7     -2802.410          46.600  
                  20993900.660    87285719.23617     -2179.568          32.800  
                                                                
  19346862.000    19346861.125   103238588.455 9      1237.355          54.200  
                  19346863.781    80296676.410 8       962.562          40.400  
                                                                
  22653655.695    22653655.254   121266790.635 6      3696.516          43.900  
                  22653657.766    94318567.824 7      2875.012          32.200  
                                                                
  20306304.852    20306304.254   108510745.728 8     -2311.367          52.700  
                  20306306.168    84397145.949 8     -1797.487          39.100  
                                                                
  19437184.750    19437183.484   103829932.402 8      1584.797          51.800  
                                                                                
                                                                
  23322462.164    23322460.066   124540648.765 3      4470.609          35.800  
                                                                                
                                                                
  23519581.445    23519580.039   125549102.506 5     -2428.883          40.900  
                  23519583.141    97649221.93017     -1888.854          29.600  
                                                                
  23571878.234    23571877.027   126093660.839 5       648.852          40.200  
                                                                                
                                                                
 18 04 04  7  7  0.0000000  0 15G02G05G07G09G13G28G30R01R02R03R11R12 0.000000000
                                R13R18R19                   
  23600293.281                   124020347.818 6     -2654.578          43.200  
                  23600296.379    96639238.467 6     -2068.420          21.800  
                                                                
  20685393.930                   108702485.971 7       882.551          51.500  
                  20685398.648    84703252.105 8       687.898          39.300  
                                                                
  21151658.969                   111152727.007 8     -1632.945          54.700  
                  21151663.305    86612534.266 8     -1272.229          37.600  
                                                                
  23003918.109                   120886411.938 6     -2846.812          44.600  
                  23003925.012    94197221.719 7     -2218.229          26.900  
                                                                
  22786558.047                   119744189.946 6      2778.906          43.600  
                  22786562.070    93307178.094 6      2165.518          22.300  
                                                                
  23130403.219                   121551069.123 6      2991.676          42.400  
                  23130407.566    94715169.555 6      2331.381          21.700  
                                                                
  20277668.367                   106559877.134 8        21.113          54.000  
                  20277675.355    83033705.188 9        16.690          43.700  
                                                                
  21009662.391    21009660.543   112308687.424 7     -2815.805          47.400  
                  21009665.570    87351264.366 7     -2189.855          32.400  
                                                                
  19339951.531    19339950.328   103201711.233 9      1221.098          54.500  
                  19339953.047    80267994.097 9       949.972          41.100  
                                                                
  22632945.711    22632945.367   121155928.091 6      3694.359          43.900  
                  22632947.836    94232341.39917      2873.434          32.900  
                                                                
  20319338.766    20319338.523   108580397.506 9     -2332.125          53.200  
                  20319340.934    84451319.548 8     -1813.609          39.700  
                                                                
  19428355.086    19428353.938   103782766.062 8      1559.512          51.900  
                                                                                
                                                                
  23297359.086    23297357.930   124406607.559 3      4465.617          35.500  
                                                                                
                                                                
  23533283.133    23533281.422   125622238.264 6     -2446.816          43.200  
                                                                                
                                                                
  23568310.188    23568307.949   126074572.548 5       623.563          39.200  
                                                                                
                                                                
 18 04 04  7  7 30.0000000  0 15G02G05G07G09G13G28G30R01R02R03R11R12 0.000000000
                                R13R18R19                   
  23615468.898                   124100097.598 6     -2662.191          42.400  
                  23615472.152    96701381.115 6     -2074.245          21.800  
                                                                
  20680406.883                   108676278.438 8       864.672          52.100  
                  20680411.320    84682830.645 8       674.008          39.500  
                                                                
  21161016.383                   111201900.671 8     -1645.336          53.800  
                  21161020.898    86650851.388 8     -1281.909          37.000  
                                                                
  23020183.523                   120971887.686 6     -2851.605          45.600  
                  23020190.359    94263826.167 7     -2221.930          27.600  
                                                                
  22770707.250                   119660895.291 6      2773.949          44.100  
                  22770711.953    93242273.171 6      2161.603          22.600  
                                                                
  23113344.313                   121461427.089 5      2984.340          41.700  
                  23113349.508    94645318.650 6      2325.554          22.000  
                                                                
  20277596.031                   106559496.224 8         4.242          55.400  
                  20277603.008    83033408.376 9         3.545          43.500  
                                                                
  21025501.664    21025500.191   112393358.612 7     -2828.887          46.800  
                  21025505.156    87417119.65517     -2200.059          32.600  
                                                                
  19333132.016    19333131.445   103165323.137 9      1204.805          54.600  
                  19333134.043    80239692.251 8       937.309          40.500  
                                                                
  22612247.523    22612247.391   121045131.322 6      3692.141          43.800  
                  22612250.320    94146166.133 8      2871.668          33.200  
                                                                
  20332490.039    20332489.207   108650669.615 8     -2352.633          52.600  
                  20332491.805    84505975.612 8     -1829.597          39.300  
                                                                
  19419667.234    19419666.297   103736357.330 8      1534.313          52.300  
                                                                                
                                                                
  23272287.844    23272286.617   124272722.028 3      4460.215          37.000  
                                                                                
                                                                
  23547084.336    23547083.117   125695911.683 6     -2464.656          43.200  
                                                                                
                                                                
  23564885.680    23564883.559   126056247.056 6       598.105          41.400  
                                                                                
                                                                
 18 04 04  7  8  0.0000000  0 15G02G05G07G09G13G28G30R01R02R03R11R12 0.000000000
                                R13R18R19                   
  23630687.969                   124180070.486 6     -2669.551          44.300  
                  23630690.090    96763697.600 6     -2080.036          22.500  
                                                                
  20675521.508                   108650605.900 7       846.746          51.800  
                  20675526.082    84662826.061 8       660.073          39.200  
                                                                
  21170444.719                   111251446.793 8     -1657.801          53.500  
                  21170449.523    86689458.740 8     -1291.589          37.500  
                                                                
  23036477.195                   121057505.772 7     -2856.398          47.200  
                  23036483.211    94330541.509 7     -2225.644          27.100  
                                                                
  22754885.531                   119577751.843 6      2768.777          43.200  
                  22754889.988    93177486.106 6      2157.647          22.200  
                                                                
  23096328.891                   121372011.567 5      2976.730          41.900  
                  23096334.590    94575644.258 6      2319.566          21.100  
                                                                
  20277619.922                   106559621.164 8       -12.703          54.900  
                  20277626.598    83033505.731 9        -9.608          43.600  
                                                                
  21041415.070    21041413.832   112478427.343 7     -2842.297          47.400  
